stop_id,stop_name,stop_url,stop_timezone,stop_lat,stop_lon
ABA,Albany International Airport,https://www.amtrak.com/stations/aba,America/New_York,42.744491,-73.809184
ABB,Abbotsford-Colby,https://www.amtrak.com/stations/abb,America/Chicago,44.928553,-90.314667
ABE,Aberdeen Amtrak Station,https://www.amtrak.com/stations/abe,America/New_York,39.508447,-76.16326
ABQ,Albuquerque Alvarado Transportation Center,https://www.amtrak.com/stations/abq,America/Denver,35.082061,-106.647975
ACA,Antioch-Pittsburg,https://www.amtrak.com/stations/aca,America/Los_Angeles,38.0177,-121.816024
ACD,Arcadia Valley Station,https://www.amtrak.com/stations/acd,America/Chicago,37.592161,-90.624403
ADM,Ardmore Amtrak Station,https://www.amtrak.com/stations/adm,America/Chicago,34.172465,-97.12551
AKV,Arkville Amtrak Bus Stop,https://www.amtrak.com/stations/akv,America/New_York,42.147779,-74.618738
AKY,Ashland Amtrak Station,https://www.amtrak.com/stations/aky,America/New_York,38.480875,-82.639603
ALB,Albany-Rensselaer Amtrak Station,https://www.amtrak.com/stations/alb,America/New_York,42.641029,-73.741147
ALC,Alliance Amtrak,https://www.amtrak.com/stations/alc,America/New_York,40.921275,-81.092904
ALD,Alderson Amtrak,https://www.amtrak.com/stations/ald,America/New_York,37.724277,-80.644856
ALI,Albion,https://www.amtrak.com/stations/ali,America/New_York,42.247196,-84.755814
ALN,Alton Amtrak Station,https://www.amtrak.com/stations/aln,America/Chicago,38.921007,-90.157298
ALP,Alpine Amtrak Station,https://www.amtrak.com/stations/alp,America/Chicago,30.357302,-103.661513
ALT,Altoona Amtrak Station,https://www.amtrak.com/stations/alt,America/New_York,40.514475,-78.40162
ALX,Alexandria,https://www.amtrak.com/stations/alx,America/New_York,38.806503,-77.06233
ALY,Albany Amtrak Station,https://www.amtrak.com/stations/aly,America/Los_Angeles,44.630464,-123.102774
AMS,Amsterdam Amtrak Station,https://www.amtrak.com/stations/ams,America/New_York,42.953719,-74.2195
ANA,Anaheim,https://www.amtrak.com/stations/ana,America/Los_Angeles,33.803803,-117.877308
AND,Andes Amtrak Bus Stop,https://www.amtrak.com/stations/and,America/New_York,42.189663,-74.78446
APP,Appleton Amtrak Station,https://www.amtrak.com/stations/app,America/Chicago,44.263311,-88.405852
ARB,Ann Arbor Amtrak Station,https://www.amtrak.com/stations/arb,America/New_York,42.287692,-83.743154
ARC,Arcata,https://www.amtrak.com/stations/arc,America/Los_Angeles,40.868633,-124.083805
ARD,Ardmore Amtrak Station,https://www.amtrak.com/stations/ard,America/New_York,40.008278,-75.290399
ARK,Arkadelphia Amtrak Station,https://www.amtrak.com/stations/ark,America/Chicago,34.113919,-93.053284
ARN,Auburn Amtrak,https://www.amtrak.com/stations/arn,America/Los_Angeles,38.903638,-121.083187
ASD,Ashland Amtrak,https://www.amtrak.com/stations/asd,America/New_York,37.759596,-77.481304
ATA,Atascadero Amtrak Bus Stop,https://www.amtrak.com/stations/ata,America/Los_Angeles,35.488953,-120.66476
ATL,Atlanta,https://www.amtrak.com/stations/atl,America/New_York,33.799445,-84.392477
ATN,Anniston Amtrak Station,https://www.amtrak.com/stations/atn,America/Chicago,33.649112,-85.832145
AUS,Austin,https://www.amtrak.com/stations/aus,America/Chicago,30.269449,-97.75694
AVO,Avon,https://www.amtrak.com/stations/avo,America/New_York,42.911182,-77.746278
AWN,Allentown,https://www.amtrak.com/stations/awn,America/New_York,40.605594,-75.462473
BAH,Bath,https://www.amtrak.com/stations/bah,America/New_York,42.33525,-77.31863
BAL,Baltimore Penn Station,https://www.amtrak.com/stations/bal,America/New_York,39.307302,-76.615688
BAM,Bangor Amtrak Station,https://www.amtrak.com/stations/bam,America/New_York,42.314519,-86.111646
BAR,Barstow,https://www.amtrak.com/stations/bar,America/Los_Angeles,34.90482,-117.025435
BBS,Barstow Amtrak Bus Stop,https://www.amtrak.com/stations/bbs,America/Los_Angeles,34.891277,-116.998434
BBY,Boston,https://www.amtrak.com/stations/bby,America/New_York,42.347317,-71.075828
BCV,Burke Centre Amtrak,https://www.amtrak.com/stations/bcv,America/New_York,38.797271,-77.29879
BDN,Brandon,https://www.amtrak.com/stations/bdn,America/New_York,43.798342,-73.08709
BDT,Bradenton,https://www.amtrak.com/stations/bdt,America/New_York,27.528462,-82.512262
BEL,Bellingham Amtrak Station,https://www.amtrak.com/stations/bel,America/Los_Angeles,48.720263,-122.511255
BEN,Benson Amtrak,https://www.amtrak.com/stations/ben,America/Denver,31.968758,-110.296904
BER,Berlin Amtrak,https://www.amtrak.com/stations/ber,America/New_York,41.635595,-72.765274
BFD,Bakersfield,https://www.amtrak.com/stations/bfd,America/Los_Angeles,35.37214,-119.00821
BFW,Buffalo,https://www.amtrak.com/stations/bfw,America/Denver,44.35732,-106.65979
BFX,Buffalo,https://www.amtrak.com/stations/bfx,America/New_York,42.878449,-78.873748
BHM,Birmingham,https://www.amtrak.com/stations/bhm,America/Chicago,33.512937,-86.807023
BIR,Big Run,https://www.amtrak.com/stations/bir,America/New_York,40.968716,-78.870218
BKY,Berkeley Amtrak,https://www.amtrak.com/stations/bky,America/Los_Angeles,37.867254,-122.300707
BLF,Bellows Falls Amtrak Station,https://www.amtrak.com/stations/blf,America/New_York,43.13654,-72.444597
BLK,Blacksburg,https://www.amtrak.com/stations/blk,America/New_York,37.229907,-80.418368
BLS,Blairsville,https://www.amtrak.com/stations/bls,America/New_York,40.444688,-79.219778
BMT,Beaumont Amtrak,https://www.amtrak.com/stations/bmt,America/Chicago,30.076458,-94.127367
BNC,Burlington Amtrak Station,https://www.amtrak.com/stations/bnc,America/New_York,36.094225,-79.434531
BND,Bend,https://www.amtrak.com/stations/bnd,America/Los_Angeles,44.05822,-121.301266
BNG,Bingen-White Salmon Amtrak,https://www.amtrak.com/stations/bng,America/Los_Angeles,45.71502,-121.46873
BNI,Bennington Amtrak Bus Stop,https://www.amtrak.com/stations/bni,America/New_York,42.878777,-73.19324
BNL,Bloomington-Normal,https://www.amtrak.com/stations/bnl,America/Chicago,40.50901,-88.984306
BOI,Boise,https://www.amtrak.com/stations/boi,America/Denver,43.571635,-116.189037
BON,Boston,https://www.amtrak.com/stations/bon,America/New_York,42.366235,-71.061122
BOS,Boston,https://www.amtrak.com/stations/bos,America/New_York,42.352311,-71.055304
BRA,Brattleboro Amtrak Station,https://www.amtrak.com/stations/bra,America/New_York,42.850849,-72.556497
BRH,Brookhaven Amtrak Station,https://www.amtrak.com/stations/brh,America/Chicago,31.582961,-90.44107
BRK,Brunswick Amtrak Station,https://www.amtrak.com/stations/brk,America/New_York,43.911388,-69.965541
BRL,Burlington Amtrak Station,https://www.amtrak.com/stations/brl,America/Chicago,40.805788,-91.101951
BRO,Browning Amtrak,https://www.amtrak.com/stations/bro,America/Denver,48.534067,-113.013151
BRP,Bridgeport Amtrak Station,https://www.amtrak.com/stations/brp,America/New_York,41.178006,-73.187539
BTL,Battle Creek,https://www.amtrak.com/stations/btl,America/New_York,42.318453,-85.187825
BTV,South Burlington Airport Bus Stop,https://www.amtrak.com/stations/btv,America/New_York,44.469865,-73.15546
BUF,Buffalo Depew Station,https://www.amtrak.com/stations/buf,America/New_York,42.907017,-78.726584
BUL,Buellton Amtrak Bus Stop,https://www.amtrak.com/stations/bul,America/Los_Angeles,34.61066,-120.186595
BUR,Burbank Amtrak,https://www.amtrak.com/stations/bur,America/Los_Angeles,34.193072,-118.353767
BUV,Buena Vista,https://www.amtrak.com/stations/buv,America/Denver,38.842897,-106.131059
BVD,Beaver Dam Amtrak Bus Stop,https://www.amtrak.com/stations/bvd,America/Chicago,43.45604,-88.816942
BVM,Beaver Marsh,https://www.amtrak.com/stations/bvm,America/Los_Angeles,43.134572,-121.803189
BWI,Bwi Thurgood Marshall Airport Station,https://www.amtrak.com/stations/bwi,America/New_York,39.192362,-76.6943
BYN,Bryan Amtrak Station,https://www.amtrak.com/stations/byn,America/New_York,41.480319,-84.551799
CAM,Camden Amtrak Station,https://www.amtrak.com/stations/cam,America/New_York,34.248157,-80.62519
CAS,Casper Amtrak Station,https://www.amtrak.com/stations/cas,America/Denver,42.856427,-106.324772
CBR,Cleburne Amtrak Station,https://www.amtrak.com/stations/cbr,America/Chicago,32.349743,-97.382333
CBS,Columbus Amtrak Station,https://www.amtrak.com/stations/cbs,America/Chicago,43.340611,-89.012609
CBZ,Cabazon Amtrak Bus Stop,https://www.amtrak.com/stations/cbz,America/Los_Angeles,33.921492,-116.798713
CDL,Carbondale,https://www.amtrak.com/stations/cdl,America/Chicago,37.724235,-89.216628
CEN,Centralia Amtrak Station,https://www.amtrak.com/stations/cen,America/Chicago,38.527531,-89.136118
CFD,Clearfield Amtrak Station,https://www.amtrak.com/stations/cfd,America/New_York,41.021095,-78.43533
CFX,Colfax Amtrak Bus Stop,https://www.amtrak.com/stations/cfx,America/Los_Angeles,46.875679,-117.365156
CHD,Cheyenne Amtrak Bus Stop,https://www.amtrak.com/stations/chd,America/Denver,41.10117,-104.84869
CHI,Chicago Union Station,https://www.amtrak.com/stations/chi,America/Chicago,41.878684,-87.639443
CHM,Champaign-Urbana,https://www.amtrak.com/stations/chm,America/Chicago,40.115843,-88.241366
CHN,Chiloquin,https://www.amtrak.com/stations/chn,America/Los_Angeles,42.535691,-121.883152
CHP,Chippewa Falls Amtrak Bus Stop,https://www.amtrak.com/stations/chp,America/Chicago,44.883096,-91.427794
CHS,Charleston Amtrak Station,https://www.amtrak.com/stations/chs,America/New_York,32.875473,-79.998048
CHW,Charleston,https://www.amtrak.com/stations/chw,America/New_York,38.346368,-81.638494
CIC,Chico Amtrak,https://www.amtrak.com/stations/cic,America/Los_Angeles,39.723259,-121.845861
CIN,Cincinnati Union Terminal,https://www.amtrak.com/stations/cin,America/New_York,39.109927,-84.537061
CLA,Claremont Amtrak,https://www.amtrak.com/stations/cla,America/New_York,43.36833,-72.377644
CLB,Columbia Amtrak Station,https://www.amtrak.com/stations/clb,America/New_York,33.994297,-81.04049
CLE,Cleveland,https://www.amtrak.com/stations/cle,America/New_York,41.505787,-81.696172
CLF,Clifton Forge Amtrak Station,https://www.amtrak.com/stations/clf,America/New_York,37.814521,-79.827363
CLM,Claremont Amtrak Station,https://www.amtrak.com/stations/clm,America/Los_Angeles,34.094469,-117.716857
CLP,Culpeper Amtrak Station,https://www.amtrak.com/stations/clp,America/New_York,38.47236,-77.993421
CLT,Charlotte Amtrak Station,https://www.amtrak.com/stations/clt,America/New_York,35.241403,-80.822812
CLV,Cloverdale Amtrak Bus Stop,https://www.amtrak.com/stations/clv,America/Los_Angeles,38.79811,-123.011847
CML,Camarillo Amtrak,https://www.amtrak.com/stations/cml,America/Los_Angeles,34.215933,-119.034114
CMO,Chemult,https://www.amtrak.com/stations/cmo,America/Los_Angeles,43.216784,-121.781594
CNV,Castleton Amtrak Station,https://www.amtrak.com/stations/cnv,America/New_York,43.613382,-73.171337
CNY,Corning Amtrak Station,https://www.amtrak.com/stations/cny,America/New_York,42.142198,-77.051306
COC,Corcoran,https://www.amtrak.com/stations/coc,America/Los_Angeles,36.098516,-119.55705
COI,Connersville Amtrak,https://www.amtrak.com/stations/coi,America/New_York,39.645969,-85.13338
COT,Coatesville Amtrak,https://www.amtrak.com/stations/cot,America/New_York,39.985688,-75.820929
COV,Connellsville Amtrak,https://www.amtrak.com/stations/cov,America/New_York,40.020282,-79.592813
COX,Colfax Amtrak Station,https://www.amtrak.com/stations/cox,America/Los_Angeles,39.099172,-120.953075
CPC,Cameron Park,https://www.amtrak.com/stations/cpc,America/Los_Angeles,38.658499,-120.998594
CPN,Carpinteria Amtrak,https://www.amtrak.com/stations/cpn,America/Los_Angeles,34.39678,-119.522975
CPT,Cooperstown Amtrak Bus Stop,https://www.amtrak.com/stations/cpt,America/New_York,42.697172,-74.931043
CRF,Crawfordsville Amtrak,https://www.amtrak.com/stations/crf,America/New_York,40.044705,-86.899187
CRM,Carmel Amtrak Bus Stop,https://www.amtrak.com/stations/crm,America/Los_Angeles,36.539033,-121.908797
CRN,Creston Amtrak,https://www.amtrak.com/stations/crn,America/Chicago,41.05692,-94.361617
CRT,Croton-Harmon Amtrak Station,https://www.amtrak.com/stations/crt,America/New_York,41.189903,-73.882394
CRV,Carlinville Amtrak Station,https://www.amtrak.com/stations/crv,America/Chicago,39.279295,-89.889276
CSN,Clemson Amtrak Station,https://www.amtrak.com/stations/csn,America/New_York,34.691115,-82.832501
CSO,Crescent,https://www.amtrak.com/stations/cso,America/Los_Angeles,43.462975,-121.695659
CTL,Centralia Amtrak Station,https://www.amtrak.com/stations/ctl,America/Los_Angeles,46.71747,-122.953062
CTO,Canton Amtrak Bus Stop,https://www.amtrak.com/stations/cto,America/New_York,44.594198,-75.170827
CUM,Cumberland Amtrak Station,https://www.amtrak.com/stations/cum,America/New_York,39.650628,-78.758
CUT,Cut Bank Amtrak Station,https://www.amtrak.com/stations/cut,America/Denver,48.638364,-112.331584
CVD,Camp Verde Amtrak Bus Stop,https://www.amtrak.com/stations/cvd,America/Denver,34.580541,-111.886244
CVS,Charlottesville,https://www.amtrak.com/stations/cvs,America/New_York,38.031484,-78.491684
CVT,Colchester,https://www.amtrak.com/stations/cvt,America/New_York,44.594999,-73.165387
CWH,Cornwells Heights Amtrak,https://www.amtrak.com/stations/cwh,America/New_York,40.071663,-74.952187
CWT,Chatsworth,https://www.amtrak.com/stations/cwt,America/Los_Angeles,34.253205,-118.599417
CYN,Cary,https://www.amtrak.com/stations/cyn,America/New_York,35.788294,-78.782246
DAL,Dallas,https://www.amtrak.com/stations/dal,America/Chicago,32.776094,-96.807235
DAN,Danville Amtrak Station,https://www.amtrak.com/stations/dan,America/New_York,36.58409,-79.383968
DAV,Davis,https://www.amtrak.com/stations/dav,America/Los_Angeles,38.543562,-121.737707
DBI,Du Bois,https://www.amtrak.com/stations/dbi,America/New_York,41.111736,-78.72441
DBP,Dublin-Pleasanton Amtrak Station,https://www.amtrak.com/stations/dbp,America/Los_Angeles,37.702833,-121.897697
DBY,Discovery Bay,http://www.amtrak.com/stations/dby,America/Los_Angeles,47.987795,-122.887334
DDE,Dade City Amtrak Bus Stop,https://www.amtrak.com/stations/dde,America/New_York,28.364669,-82.184459
DDG,Dodge City Amtrak Station,https://www.amtrak.com/stations/ddg,America/Chicago,37.752306,-100.016961
DEM,Deming Amtrak,https://www.amtrak.com/stations/dem,America/Denver,32.27177,-107.754346
DEN,Denver,https://www.amtrak.com/stations/den,America/Denver,39.752959,-104.999929
DER,Dearborn,https://www.amtrak.com/stations/der,America/New_York,42.307167,-83.235311
DET,Detroit,https://www.amtrak.com/stations/det,America/New_York,42.368097,-83.072397
DFB,Deerfield Beach Amtrak Station,https://www.amtrak.com/stations/dfb,America/New_York,26.317069,-80.122147
DGS,Douglas Amtrak Bus Stop,https://www.amtrak.com/stations/dgs,America/Denver,42.762421,-105.403907
DHI,Delhi Amtrak Bus Stop,https://www.amtrak.com/stations/dhi,America/New_York,42.27597,-74.917475
DHM,Durham,https://www.amtrak.com/stations/dhm,America/New_York,43.139328,-70.936013
DIL,Dillon Amtrak Station,https://www.amtrak.com/stations/dil,America/New_York,34.417647,-79.372301
DKJ,De Kalb Junction Amtrak Bus Stop,https://www.amtrak.com/stations/dkj,America/New_York,44.504682,-75.274378
DLB,Delray Beach Amtrak,https://www.amtrak.com/stations/dlb,America/New_York,26.454021,-80.091154
DLD,Deland,https://www.amtrak.com/stations/dld,America/New_York,29.017849,-81.352477
DLK,Detroit Lakes Amtrak Station,https://www.amtrak.com/stations/dlk,America/Chicago,46.819692,-95.845998
DLT,Delmont Amtrak Bus Stop,https://www.amtrak.com/stations/dlt,America/New_York,40.399029,-79.580374
DNC,Durham Amtrak Station,https://www.amtrak.com/stations/dnc,America/New_York,35.997347,-78.906299
DNK,Denmark Amtrak Station,https://www.amtrak.com/stations/dnk,America/New_York,33.326184,-81.143635
DNV,Dansville Amtrak Bus Stop,https://www.amtrak.com/stations/dnv,America/New_York,42.559018,-77.69526
DOA,Dowagiac Amtrak Station,https://www.amtrak.com/stations/doa,America/New_York,41.980941,-86.109041
DOV,Dover,https://www.amtrak.com/stations/dov,America/New_York,43.197968,-70.878361
DOW,Downingtown Amtrak,https://www.amtrak.com/stations/dow,America/New_York,40.002193,-75.710775
DPE,Green Bay - De Pere Amtrak Bus Stop,http://www.amtrak.com/stations/dpe,America/Chicago,44.451367,-88.088426
DQN,Du Quoin Amtrak Station,https://www.amtrak.com/stations/dqn,America/Chicago,38.012328,-89.240254
DRD,Durand Amtrak Station,https://www.amtrak.com/stations/drd,America/New_York,42.909495,-83.98232
DRT,Del Rio Amtrak Station,https://www.amtrak.com/stations/drt,America/Chicago,29.362202,-100.902662
DUN,Dunsmuir Amtrak Station,https://www.amtrak.com/stations/dun,America/Los_Angeles,41.211127,-122.270587
DVL,Devils Lake Amtrak Station,https://www.amtrak.com/stations/dvl,America/Chicago,48.110468,-98.861372
DWT,Dwight Amtrak Station,https://www.amtrak.com/stations/dwt,America/Chicago,41.089854,-88.430707
DYE,Dyer Amtrak,https://www.amtrak.com/stations/dye,America/Chicago,41.515413,-87.518076
EDM,Edmonds,https://www.amtrak.com/stations/edm,America/Los_Angeles,47.811081,-122.384141
EFG,Effingham Amtrak Station,https://www.amtrak.com/stations/efg,America/Chicago,39.117059,-88.54711
EKA,Eureka Amtrak Bus Stop,https://www.amtrak.com/stations/eka,America/Los_Angeles,40.800739,-124.16933
EKG,Elk Grove Amtrak Bus Stop,https://www.amtrak.com/stations/ekg,America/Los_Angeles,38.424746,-121.480807
EKH,Elkhart Amtrak Station,https://www.amtrak.com/stations/ekh,America/New_York,41.680748,-85.971848
ELK,Elko Amtrak,https://www.amtrak.com/stations/elk,America/Los_Angeles,40.836483,-115.75053
ELP,El Paso,https://www.amtrak.com/stations/elp,America/Denver,31.757346,-106.495644
ELT,Elizabethtown Amtrak Station,https://www.amtrak.com/stations/elt,America/New_York,40.147028,-76.612234
ELY,Elyria Amtrak,https://www.amtrak.com/stations/ely,America/New_York,41.370033,-82.096685
EMA,Elmira Amtrak Station,https://www.amtrak.com/stations/ema,America/New_York,42.089989,-76.806046
EMI,Escanaba,https://www.amtrak.com/stations/emi,America/New_York,45.779858,-87.089868
EMY,Emeryville,https://www.amtrak.com/stations/emy,America/Los_Angeles,37.840474,-122.291615
EPH,Ephrata Amtrak,https://www.amtrak.com/stations/eph,America/Los_Angeles,47.320948,-119.549267
ERI,Erie Amtrak Station,https://www.amtrak.com/stations/eri,America/New_York,42.120847,-80.082444
ESM,Essex Amtrak,https://www.amtrak.com/stations/esm,America/Denver,48.275543,-113.610942
ESX,Essex Junction-Burlington Amtrak Station,https://www.amtrak.com/stations/esx,America/New_York,44.492466,-73.110277
EUC,Eau Claire Amtrak Bus Stop,https://www.amtrak.com/stations/euc,America/Chicago,44.796558,-91.506339
EUG,Eugene,https://www.amtrak.com/stations/eug,America/Los_Angeles,44.055043,-123.092361
EVM,Evans Mills Amtrak Bus Stop,https://www.amtrak.com/stations/evm,America/New_York,44.08427,-75.799444
EVR,Everett Amtrak Station,https://www.amtrak.com/stations/evr,America/Los_Angeles,47.975401,-122.197858
EWR,Newark Liberty International Airport,https://www.amtrak.com/stations/ewr,America/New_York,40.696618,-74.18229
EXR,Exeter,https://www.amtrak.com/stations/exr,America/New_York,42.98102,-70.9587
EXT,Exton Amtrak,https://www.amtrak.com/stations/ext,America/New_York,40.019291,-75.621713
FAR,Fargo Amtrak Station,https://www.amtrak.com/stations/far,America/Chicago,46.880982,-96.785372
FAY,Fayetteville Amtrak Station,https://www.amtrak.com/stations/fay,America/New_York,35.054993,-78.884788
FBG,Fredericksburg Amtrak,https://www.amtrak.com/stations/fbg,America/New_York,38.298413,-77.457203
FDL,Fond du Lac Amtrak Bus Stop,https://www.amtrak.com/stations/fdl,America/Chicago,43.755768,-88.476718
FED,Fort Edward Amtrak,https://www.amtrak.com/stations/fed,America/New_York,43.269603,-73.58055
FFV,Fairfield-Vacaville Amtrak Station,https://www.amtrak.com/stations/ffv,America/Los_Angeles,38.285626,-121.967926
FHD,Fort Hood Amtrak Bus Stop,https://www.amtrak.com/stations/fhd,America/Chicago,31.141597,-97.766812
FIL,Fillmore Amtrak Bus Stop,https://www.amtrak.com/stations/fil,America/Los_Angeles,34.396009,-118.918319
FLG,Flagstaff,https://www.amtrak.com/stations/flg,America/Denver,35.197374,-111.648871
FLM,Fleischmanns Amtrak Bus Stop,https://www.amtrak.com/stations/flm,America/New_York,42.154574,-74.524714
FLN,Flint Amtrak Station,https://www.amtrak.com/stations/fln,America/New_York,43.015425,-83.651728
FLO,Florence Amtrak Station,https://www.amtrak.com/stations/flo,America/New_York,34.199157,-79.757056
FMD,Fort Madison,https://www.amtrak.com/stations/fmd,America/Chicago,40.629558,-91.313529
FMG,Fort Morgan Amtrak Station,https://www.amtrak.com/stations/fmg,America/Denver,40.247169,-103.802818
FMT,Fremont,https://www.amtrak.com/stations/fmt,America/Los_Angeles,37.559093,-122.007496
FNO,Fresno,https://www.amtrak.com/stations/fno,America/Los_Angeles,36.738457,-119.782926
FRA,Framingham Amtrak,https://www.amtrak.com/stations/fra,America/New_York,42.275993,-71.420033
FRE,Freeport Amtrak Station,https://www.amtrak.com/stations/fre,America/New_York,43.855035,-70.102358
FRP,Fairplay Amtrak Bus Stop,https://www.amtrak.com/stations/frp,America/Denver,39.225516,-105.991608
FRT,Fremont Amtrak Bus Stop,https://www.amtrak.com/stations/frt,America/Los_Angeles,37.53915,-121.92364
FTA,Fortuna Amtrak Bus Stop,https://www.amtrak.com/stations/fta,America/Los_Angeles,40.583672,-124.146188
FTC,Ticonderoga Amtrak,https://www.amtrak.com/stations/ftc,America/New_York,43.853788,-73.389681
FTL,Fort Lauderdale Amtrak Station,https://www.amtrak.com/stations/ftl,America/New_York,26.119256,-80.17
FTM,Fort Myers Amtrak Bus Stop,https://www.amtrak.com/stations/ftm,America/New_York,26.655312,-81.801382
FTN,Fulton Amtrak Station,https://www.amtrak.com/stations/ftn,America/Chicago,36.525704,-88.888772
FTW,Fort Worth,https://www.amtrak.com/stations/ftw,America/Chicago,32.752563,-97.326673
FUL,Fullerton Amtrak Station,https://www.amtrak.com/stations/ful,America/Los_Angeles,33.868969,-117.922849
GAC,Santa Clara Great America Amtrak,https://www.amtrak.com/stations/gac,America/Los_Angeles,37.406778,-121.967003
GAS,Gastonia Amtrak Station,https://www.amtrak.com/stations/gas,America/New_York,35.269186,-81.162366
GBB,Galesburg Amtrak Station,https://www.amtrak.com/stations/gbb,America/Chicago,40.944678,-90.364106
GBO,Goldsboro,https://www.amtrak.com/stations/gbo,America/New_York,35.385675,-78.003337
GBV,Garberville Amtrak Bus Stop,https://www.amtrak.com/stations/gbv,America/Los_Angeles,40.097719,-123.79523
GBY,Green Bay Amtrak Station,https://www.amtrak.com/stations/gby,America/Chicago,44.517053,-88.00276
GCB,Grand Canyon National Park Amtrak Bus Stop,https://www.amtrak.com/stations/gcb,America/Denver,36.05364,-112.144648
GCK,Garden City Amtrak Station,https://www.amtrak.com/stations/gck,America/Chicago,37.964365,-100.873256
GCN,Grand Canyon Railway Depot,https://www.amtrak.com/stations/gcn,America/Denver,36.056867,-112.136845
GDL,Glendale Amtrak,https://www.amtrak.com/stations/gdl,America/Los_Angeles,34.123706,-118.258868
GEG,Spokane Amtrak Bus Stop,https://www.amtrak.com/stations/geg,America/Los_Angeles,47.626646,-117.536887
GEN,Geneseo Amtrak Bus Stop,https://www.amtrak.com/stations/gen,America/New_York,42.795694,-77.817102
GFD,Greenfield Amtrak Station,https://www.amtrak.com/stations/gfd,America/New_York,42.585458,-72.600765
GFK,Grand Forks Amtrak Station,https://www.amtrak.com/stations/gfk,America/Chicago,47.917522,-97.110835
GGW,Glasgow Amtrak Station,https://www.amtrak.com/stations/ggw,America/Denver,48.194854,-106.636188
GIL,Gilchrist,https://www.amtrak.com/stations/gil,America/Los_Angeles,43.477437,-121.687175
GJT,Grand Junction Amtrak Station,https://www.amtrak.com/stations/gjt,America/Denver,39.064375,-108.569929
GLE,Gainesville Amtrak Station,https://www.amtrak.com/stations/gle,America/Chicago,33.625159,-97.140896
GLM,Gilman Amtrak,https://www.amtrak.com/stations/glm,America/Chicago,40.752547,-87.998055
GLN,Glenview Amtrak Station,https://www.amtrak.com/stations/gln,America/Chicago,42.075038,-87.805562
GLP,Gallup Amtrak Station,https://www.amtrak.com/stations/glp,America/Denver,35.529176,-108.740548
GLS,Galveston Amtrak Bus Stop,https://www.amtrak.com/stations/gls,America/Chicago,29.306615,-94.796849
GNB,Greensburg Amtrak,https://www.amtrak.com/stations/gnb,America/New_York,40.304986,-79.546893
GNF,Gainesville Amtrak Bus Stop,https://www.amtrak.com/stations/gnf,America/New_York,29.673652,-82.323379
GNS,Gainesville Amtrak Station,https://www.amtrak.com/stations/gns,America/New_York,34.288897,-83.819694
GOF,Florence,https://www.amtrak.com/stations/gof,America/Los_Angeles,43.984965,-124.099324
GOV,Government Camp,https://www.amtrak.com/stations/gov,America/Los_Angeles,45.302445,-121.744822
GPK,East Glacier Park Amtrak Station,https://www.amtrak.com/stations/gpk,America/Denver,48.442333,-113.219523
GRA,Granby Amtrak Station,https://www.amtrak.com/stations/gra,America/Denver,40.084188,-105.935503
GRE,Greeley Amtrak Bus Stop,https://www.amtrak.com/stations/gre,America/Denver,40.433716,-104.697745
GRH,Gresham Amtrak Bus Stop,https://www.amtrak.com/stations/grh,America/Los_Angeles,45.501806,-122.418117
GRI,Green River Amtrak,https://www.amtrak.com/stations/gri,America/Denver,38.992039,-110.165228
GRN,Greenville Amtrak Bus Stop,https://www.amtrak.com/stations/grn,America/New_York,35.610198,-77.377078
GRO,Greensboro,https://www.amtrak.com/stations/gro,America/New_York,36.069797,-79.78708
GRR,Grand Rapids Vernon J. Ehlers Station,https://www.amtrak.com/stations/grr,America/New_York,42.955788,-85.672447
GRV,Greenville Amtrak Station,https://www.amtrak.com/stations/grv,America/New_York,34.858256,-82.413486
GSC,Glenwood Springs,https://www.amtrak.com/stations/gsc,America/Denver,39.547903,-107.323218
GTA,Goleta Amtrak,https://www.amtrak.com/stations/gta,America/Los_Angeles,34.437729,-119.843092
GUA,Guadalupe Amtrak Station,https://www.amtrak.com/stations/gua,America/Los_Angeles,34.962927,-120.57341
GUN,Gunnison Amtrak Bus Stop,https://www.amtrak.com/stations/gun,America/Denver,38.544173,-106.922057
GVB,Grover Beach Amtrak,https://www.amtrak.com/stations/gvb,America/Los_Angeles,35.12126,-120.629266
GVI,Grangeville Amtrak Bus Stop,https://www.amtrak.com/stations/gvi,America/Los_Angeles,45.927188,-116.131574
GVR,Gouverneur Amtrak Bus Stop,https://www.amtrak.com/stations/gvr,America/New_York,44.335612,-75.467999
GWD,Greenwood Amtrak Station,https://www.amtrak.com/stations/gwd,America/Chicago,33.517159,-90.176454
HAM,Hamlet Amtrak Station,https://www.amtrak.com/stations/ham,America/New_York,34.883663,-79.699218
HAR,Harrisburg,https://www.amtrak.com/stations/har,America/New_York,40.26205,-76.878256
HAS,Hastings Amtrak Station,https://www.amtrak.com/stations/has,America/Chicago,40.584276,-98.387534
HAV,Havre Amtrak Station,https://www.amtrak.com/stations/hav,America/Denver,48.554465,-109.678352
HAY,Hayward Amtrak,https://www.amtrak.com/stations/hay,America/Los_Angeles,37.665997,-122.099277
HAZ,Hazlehurst Amtrak,https://www.amtrak.com/stations/haz,America/Chicago,31.86132,-90.394347
HBG,Hattiesburg Amtrak Station,https://www.amtrak.com/stations/hbg,America/Chicago,31.326921,-89.286463
HEA,Healdsburg Amtrak Bus Stop,https://www.amtrak.com/stations/hea,America/Los_Angeles,38.606841,-122.869456
HEM,Hermann,https://www.amtrak.com/stations/hem,America/Chicago,38.707283,-91.432558
HER,Helper Amtrak Station,https://www.amtrak.com/stations/her,America/Denver,39.684036,-110.853894
HFD,Hartford Amtrak Station,https://www.amtrak.com/stations/hfd,America/New_York,41.768761,-72.681314
HFY,Harpers Ferry Amtrak,https://www.amtrak.com/stations/hfy,America/New_York,39.324452,-77.731078
HGD,Huntingdon Amtrak Station,https://www.amtrak.com/stations/hgd,America/New_York,40.483665,-78.01178
HGH,Houghton Amtrak Bus Stop,https://www.amtrak.com/stations/hgh,America/New_York,47.118726,-88.54963
HGM,Highmount,https://www.amtrak.com/stations/hgm,America/New_York,42.144883,-74.491169
HHL,Haverhill Amtrak,https://www.amtrak.com/stations/hhl,America/New_York,42.773297,-71.086375
HIN,Hinton Amtrak Station,https://www.amtrak.com/stations/hin,America/New_York,37.675037,-80.892232
HKM,Hancock Amtrak Bus Stop,https://www.amtrak.com/stations/hkm,America/New_York,47.126982,-88.580295
HLD,Holdrege,https://www.amtrak.com/stations/hld,America/Chicago,40.436013,-99.370077
HLK,Holyoke Amtrak,https://www.amtrak.com/stations/hlk,America/New_York,42.204156,-72.602309
HMD,Hammond Amtrak Station,https://www.amtrak.com/stations/hmd,America/Chicago,30.50718,-90.462169
HMI,Hammond-Whiting Amtrak Station,https://www.amtrak.com/stations/hmi,America/Chicago,41.691155,-87.506511
HMW,Homewood,https://www.amtrak.com/stations/hmw,America/Chicago,41.562446,-87.668685
HNF,Hanford,https://www.amtrak.com/stations/hnf,America/Los_Angeles,36.326078,-119.651816
HOL,Hollywood Amtrak Station,https://www.amtrak.com/stations/hol,America/New_York,26.011641,-80.167884
HOM,Holland Amtrak Station,https://www.amtrak.com/stations/hom,America/New_York,42.791096,-86.096553
HOP,Hope Amtrak Station,https://www.amtrak.com/stations/hop,America/Chicago,33.668913,-93.592247
HOS,Houston,https://www.amtrak.com/stations/hos,America/Chicago,29.767245,-95.367526
HPT,High Point,https://www.amtrak.com/stations/hpt,America/New_York,35.957128,-80.006097
HRN,Hornell Amtrak Bus Stop,https://www.amtrak.com/stations/hrn,America/New_York,42.363766,-77.668635
HUD,Hudson Amtrak Station,https://www.amtrak.com/stations/hud,America/New_York,42.253891,-73.797729
HUN,Huntington Amtrak Station,https://www.amtrak.com/stations/hun,America/New_York,38.41582,-82.439735
HUT,Hutchinson Amtrak Station,https://www.amtrak.com/stations/hut,America/Chicago,38.055712,-97.931522
HVL,Havelock,https://www.amtrak.com/stations/hvl,America/New_York,34.891191,-76.926115
HWK,Hartwick Seminary Amtrak Bus Stop,https://www.amtrak.com/stations/hwk,America/New_York,42.649517,-74.963226
IDO,Indio Amtrak Bus Stop,https://www.amtrak.com/stations/ido,America/Los_Angeles,33.714863,-116.233132
IDP,Independence Amtrak Station,https://www.amtrak.com/stations/idp,America/Chicago,39.086917,-94.429711
INA,Indiana Amtrak Bus Stop,https://www.amtrak.com/stations/ina,America/New_York,40.61314,-79.160006
IND,Indianapolis,https://www.amtrak.com/stations/ind,America/New_York,39.761984,-86.160423
IRV,Irvine,https://www.amtrak.com/stations/irv,America/Los_Angeles,33.656771,-117.733695
JAN,Jackson,https://www.amtrak.com/stations/jan,America/Chicago,32.300808,-90.190936
JAX,Jacksonville,https://www.amtrak.com/stations/jax,America/New_York,30.365601,-81.723893
JEF,Jefferson City Amtrak Station,https://www.amtrak.com/stations/jef,America/Chicago,38.57887,-92.169906
JNC,Jacksonville Amtrak Bus Stop,https://www.amtrak.com/stations/jnc,America/New_York,34.748949,-77.41962
JOL,Joliet Gateway Center,https://www.amtrak.com/stations/jol,America/Chicago,41.524647,-88.078731
JSP,Jesup Amtrak Station,https://www.amtrak.com/stations/jsp,America/New_York,31.605589,-81.882173
JST,Johnstown Amtrak Station,https://www.amtrak.com/stations/jst,America/New_York,40.329689,-78.921996
JVL,Janesville Amtrak Station,https://www.amtrak.com/stations/jvl,America/Chicago,42.719995,-88.988186
JXN,Jackson,https://www.amtrak.com/stations/jxn,America/New_York,42.248113,-84.39967
KAL,Kalamazoo,https://www.amtrak.com/stations/kal,America/New_York,42.295255,-85.584018
KAN,Kannapolis,https://www.amtrak.com/stations/kan,America/New_York,35.496172,-80.624928
KCY,Kansas City,https://www.amtrak.com/stations/kcy,America/Chicago,39.084576,-94.585129
KEE,Kewanee Amtrak Station,https://www.amtrak.com/stations/kee,America/Chicago,41.245765,-89.927544
KEL,Kelso-Longview,https://www.amtrak.com/stations/kel,America/Los_Angeles,46.142264,-122.913016
KFS,Klamath Falls,https://www.amtrak.com/stations/kfs,America/Los_Angeles,42.225509,-121.771952
KGC,King City Amtrak Bus Stop,https://www.amtrak.com/stations/kgc,America/Los_Angeles,36.202547,-121.136344
KGE,Kingston Amtrak Bus Stop East,http://www.amtrak.com/stations/kge,America/Los_Angeles,47.796069,-122.496288
KGW,Kingston Amtrak Bus Stop East,http://www.amtrak.com/stations/kgw,America/Los_Angeles,47.802025,-122.500484
KIL,Killeen Amtrak Station,https://www.amtrak.com/stations/kil,America/Chicago,31.121152,-97.728617
KIN,Kingston Amtrak Station,https://www.amtrak.com/stations/kin,America/New_York,41.483959,-71.560597
KIS,Kissimmee Amtrak Station,https://www.amtrak.com/stations/kis,America/New_York,28.293835,-81.404234
KKI,Kankakee,https://www.amtrak.com/stations/kki,America/Chicago,41.119259,-87.86543
KNC,Kinston,https://www.amtrak.com/stations/knc,America/New_York,35.243706,-77.584478
KNG,Kingman,https://www.amtrak.com/stations/kng,America/Denver,35.188279,-114.052816
KTR,Kingstree Amtrak Station,https://www.amtrak.com/stations/ktr,America/New_York,33.663882,-79.829026
KWD,Kirkwood Amtrak Station,https://www.amtrak.com/stations/kwd,America/Chicago,38.581067,-90.406761
LAB,Latrobe Amtrak,https://www.amtrak.com/stations/lab,America/New_York,40.317405,-79.385083
LAF,Lafayette Amtrak Station,https://www.amtrak.com/stations/laf,America/New_York,40.419347,-86.895901
LAG,La Grange Amtrak,https://www.amtrak.com/stations/lag,America/Chicago,41.815634,-87.871545
LAJ,La Junta Amtrak Station,https://www.amtrak.com/stations/laj,America/Denver,37.988249,-103.543576
LAK,Lakeland Amtrak Station,https://www.amtrak.com/stations/lak,America/New_York,28.045603,-81.951874
LAN,L'Anse Amtrak Bus Stop,https://www.amtrak.com/stations/lan,America/New_York,46.757941,-88.454511
LAP,La Plata Amtrak Station,https://www.amtrak.com/stations/lap,America/Chicago,40.02922,-92.493384
LAS,McCarran International Airport Amtrak Bus Stop,https://www.amtrak.com/stations/las,America/Los_Angeles,36.085973,-115.148493
LAU,Laurel Amtrak Station,https://www.amtrak.com/stations/lau,America/Chicago,31.692168,-89.127933
LAX,Los Angeles,https://www.amtrak.com/stations/lax,America/Los_Angeles,34.056177,-118.236778
LCA,La Crescenta Amtrak Bus Stop,https://www.amtrak.com/stations/lca,America/Los_Angeles,34.231944,-118.266511
LCH,Lake Charles,https://www.amtrak.com/stations/lch,America/Chicago,30.238126,-93.217037
LCN,Lincoln Amtrak Station,https://www.amtrak.com/stations/lcn,America/Chicago,40.148199,-89.363051
LDB,Lordsburg Amtrak,https://www.amtrak.com/stations/ldb,America/Denver,32.35007,-108.707025
LEE,Lee's Summit Amtrak,https://www.amtrak.com/stations/lee,America/Chicago,38.912623,-94.377972
LEG,Leggett Amtrak Bus Stop,https://www.amtrak.com/stations/leg,America/Los_Angeles,39.878226,-123.727964
LEV,Leavenworth Amtrak Bus Stop,https://www.amtrak.com/stations/lev,America/Los_Angeles,47.588471,-120.674502
LEW,Lewistown Amtrak Station,https://www.amtrak.com/stations/lew,America/New_York,40.588309,-77.580047
LFT,Lafayette Amtrak Station,https://www.amtrak.com/stations/lft,America/Chicago,30.226548,-92.014519
LIB,Libby Amtrak Station,https://www.amtrak.com/stations/lib,America/Denver,48.394842,-115.54889
LIV,Livermore Amtrak Bus Stop,https://www.amtrak.com/stations/liv,America/Los_Angeles,37.684915,-121.767121
LKL,Lakeland,https://www.amtrak.com/stations/lkl,America/New_York,28.045603,-81.951874
LMC,Lemoore Amtrak Bus Stop,https://www.amtrak.com/stations/lmc,America/Los_Angeles,36.303131,-119.784545
LMR,Lamar Amtrak,https://www.amtrak.com/stations/lmr,America/Denver,38.089623,-102.618574
LMY,Lamy,https://www.amtrak.com/stations/lmy,America/Denver,35.480973,-105.879968
LNC,Lancaster,https://www.amtrak.com/stations/lnc,America/New_York,40.054181,-76.307714
LNK,Lincoln Amtrak Station,https://www.amtrak.com/stations/lnk,America/Chicago,40.815871,-96.71317
LNS,East Lansing Amtrak Station,https://www.amtrak.com/stations/lns,America/New_York,42.718731,-84.495962
LNV,Laughlin Amtrak Bus Stop,https://www.amtrak.com/stations/lnv,America/Los_Angeles,35.161464,-114.576557
LOD,Lodi Amtrak Station,https://www.amtrak.com/stations/lod,America/Los_Angeles,38.133201,-121.271887
LOH,Los Alamos Amtrak Bus Stop,https://www.amtrak.com/stations/loh,America/Denver,35.827795,-106.208804
LOR,Lorton Amtrak Auto Train Station,https://www.amtrak.com/stations/lor,America/New_York,38.708143,-77.220942
LOS,Los Alamos Amtrak Bus Stop,https://www.amtrak.com/stations/los,America/Denver,35.881799,-106.29992
LPE,Lapeer Amtrak Station,https://www.amtrak.com/stations/lpe,America/New_York,43.04952,-83.306154
LPN,La Pine Amtrak Bus Stop,https://www.amtrak.com/stations/lpn,America/Los_Angeles,43.674176,-121.499956
LPS,Lompoc-Surf Amtrak,https://www.amtrak.com/stations/lps,America/Los_Angeles,34.682704,-120.605001
LQT,La Quinta Amtrak Bus Stop,https://www.amtrak.com/stations/lqt,America/Los_Angeles,33.710979,-116.289964
LRC,Lawrence Amtrak Station,https://www.amtrak.com/stations/lrc,America/Chicago,38.971166,-95.230539
LRK,Little Rock Union Station,https://www.amtrak.com/stations/lrk,America/Chicago,34.750298,-92.286785
LSB,Lewisburg Amtrak Bus Stop,https://www.amtrak.com/stations/lsb,America/New_York,40.963073,-76.887341
LSE,La Crosse,https://www.amtrak.com/stations/lse,America/Chicago,43.833155,-91.247298
LSV,Las Vegas Amtrak Station,https://www.amtrak.com/stations/lsv,America/Denver,35.593432,-105.212779
LTM,Lathrop-Manteca Amtrak Station,https://www.amtrak.com/stations/ltm,America/Los_Angeles,37.79836,-121.263658
LTV,Laytonville Amtrak Bus Stop,https://www.amtrak.com/stations/ltv,America/Los_Angeles,39.686633,-123.482019
LVS,Las Vegas,https://www.amtrak.com/stations/lvs,America/Los_Angeles,36.164458,-115.149734
LVT,Las Vegas Amtrak Bus Stop,https://www.amtrak.com/stations/lvt,America/Los_Angeles,36.068464,-115.163629
LVW,Longview,https://www.amtrak.com/stations/lvw,America/Chicago,32.494032,-94.728322
LWA,Leavenworth Amtrak,https://www.amtrak.com/stations/lwa,America/Los_Angeles,47.606493,-120.643965
LWN,Lewiston Amtrak Bus Stop,https://www.amtrak.com/stations/lwn,America/Los_Angeles,46.426931,-117.005923
LYH,Lynchburg,https://www.amtrak.com/stations/lyh,America/New_York,37.406439,-79.156934
MAC,Macomb Amtrak Station,https://www.amtrak.com/stations/mac,America/Chicago,40.461212,-90.67094
MAD,Madras,https://www.amtrak.com/stations/mad,America/Los_Angeles,44.618898,-121.133533
MAL,Malta Amtrak Station,https://www.amtrak.com/stations/mal,America/Denver,48.360477,-107.872242
MAT,Mattoon Amtrak Station,https://www.amtrak.com/stations/mat,America/Chicago,39.48273,-88.376045
MAY,Maysville Amtrak Station,https://www.amtrak.com/stations/may,America/New_York,38.652148,-83.771074
MCA,McCall Amtrak Bus Stop,https://www.amtrak.com/stations/mca,America/Los_Angeles,44.906506,-116.09712
MCB,Mccomb,https://www.amtrak.com/stations/mcb,America/Chicago,31.244467,-90.451334
MCD,Merced,https://www.amtrak.com/stations/mcd,America/Los_Angeles,37.307183,-120.476805
MCG,McGregor Amtrak,https://www.amtrak.com/stations/mcg,America/Chicago,31.443352,-97.404756
MCK,McCook Amtrak Station,https://www.amtrak.com/stations/mck,America/Chicago,40.197634,-100.625792
MCV,Manchester Center Amtrak Bus Stop,https://www.amtrak.com/stations/mcv,America/New_York,43.177711,-73.058331
MDL,Meridale Amtrak Bus Stop,https://www.amtrak.com/stations/mdl,America/New_York,42.367054,-74.952707
MDN,Meriden,https://www.amtrak.com/stations/mdn,America/New_York,41.539385,-72.800678
MDR,Madera Amtrak,https://www.amtrak.com/stations/mdr,America/Los_Angeles,37.022471,-120.07498
MDT,Mendota Amtrak Station,https://www.amtrak.com/stations/mdt,America/Chicago,41.549584,-89.11792
MEE,Monroe - Eastbound Amtrak Bus Stop,https://www.amtrak.com/stations/mee,America/Los_Angeles,47.858216,-121.966252
MEI,Meridian Union Station,https://www.amtrak.com/stations/mei,America/Chicago,32.364166,-88.696568
MEM,Memphis,https://www.amtrak.com/stations/mem,America/Chicago,35.132458,-90.059109
MET,Metropark Amtrak Station,https://www.amtrak.com/stations/met,America/New_York,40.568056,-74.329583
MEW,Monroe - Westbound Amtrak Bus Stop,https://www.amtrak.com/stations/mew,America/Los_Angeles,47.858463,-121.966193
MGV,Margaretville Amtrak Bus Stop,https://www.amtrak.com/stations/mgv,America/New_York,42.149535,-74.64686
MHD,Morehead City,https://www.amtrak.com/stations/mhd,America/New_York,34.721383,-76.71568
MHL,Marshall Amtrak Station,https://www.amtrak.com/stations/mhl,America/Chicago,32.551549,-94.366995
MIA,Miami Amtrak Station,https://www.amtrak.com/stations/mia,America/New_York,25.849554,-80.257759
MID,Middletown,https://www.amtrak.com/stations/mid,America/New_York,40.195658,-76.736482
MIN,Mineola,https://www.amtrak.com/stations/min,America/Chicago,32.662049,-95.4891
MIY,Middlebury,https://www.amtrak.com/stations/miy,America/New_York,44.010209,-73.174466
MJY,Mount Joy Amtrak,https://www.amtrak.com/stations/mjy,America/New_York,40.109165,-76.503443
MKA,General Mitchell Intl. Airport Amtrak Station,https://www.amtrak.com/stations/mka,America/Chicago,42.940583,-87.924359
MKB,Milwaukee Airport Amtrak Bus Stop,http://www.amtrak.com/stations/mkb,America/Chicago,42.947175,-87.903077
MKE,Milwaukee,https://www.amtrak.com/stations/mke,America/Chicago,43.034518,-87.917104
MKS,Marks Amtrak,https://www.amtrak.com/stations/mks,America/Chicago,34.258227,-90.272342
MLK,Moses Lake Amtrak Bus Stop,https://www.amtrak.com/stations/mlk,America/Los_Angeles,47.101976,-119.24536
MMR,Mt. Morris Amtrak Bus Stop,https://www.amtrak.com/stations/mmr,America/New_York,42.724509,-77.873245
MNG,Montgomery Amtrak,https://www.amtrak.com/stations/mng,America/New_York,38.180743,-81.32403
MNR,Monroeville Amtrak Bus Stop,https://www.amtrak.com/stations/mnr,America/New_York,40.438067,-79.761749
MNY,Massena,https://www.amtrak.com/stations/mny,America/New_York,44.923283,-74.945391
MOC,Moscow Amtrak Bus Stop,https://www.amtrak.com/stations/moc,America/Los_Angeles,46.725931,-117.005388
MOD,Modesto,https://www.amtrak.com/stations/mod,America/Los_Angeles,37.668951,-120.912913
MOJ,Mojave Amtrak Bus Stop,https://www.amtrak.com/stations/moj,America/Los_Angeles,35.05249,-118.173181
MOT,Minot Amtrak Station,https://www.amtrak.com/stations/mot,America/Chicago,48.236083,-101.298557
MPK,Moorpark Amtrak,https://www.amtrak.com/stations/mpk,America/Los_Angeles,34.28476,-118.878059
MPL,Mapleton,http://www.amtrak.com/stations/mpl,America/Los_Angeles,44.026824,-123.8575
MPR,Montpelier-Berlin Amtrak Station,https://www.amtrak.com/stations/mpr,America/New_York,44.255749,-72.606394
MQT,Marquette Amtrak Station,https://www.amtrak.com/stations/mqt,America/New_York,46.557825,-87.452499
MRB,Martinsburg Amtrak Station,https://www.amtrak.com/stations/mrb,America/New_York,39.458661,-77.961014
MRC,Maricopa,https://www.amtrak.com/stations/mrc,America/Denver,33.056284,-112.047137
MRV,Marysville Amtrak Station,https://www.amtrak.com/stations/mrv,America/Los_Angeles,39.143721,-121.597259
MRY,Monterey Amtrak Bus Stop,https://www.amtrak.com/stations/mry,America/Los_Angeles,36.597611,-121.894331
MSL,Minneapolis-St. Paul International Airport,https://www.amtrak.com/stations/msl,America/Chicago,44.882625,-93.210772
MSN,Madison,https://www.amtrak.com/stations/msn,America/Chicago,43.071201,-89.397612
MSP,St. Paul-Minneapolis,https://www.amtrak.com/stations/msp,America/Chicago,44.947661,-93.085355
MSS,Manassas Amtrak Station,https://www.amtrak.com/stations/mss,America/New_York,38.750084,-77.472577
MTC,Manitowoc Amtrak Bus Stop,https://www.amtrak.com/stations/mtc,America/Chicago,44.078388,-87.698759
MTP,Mt. Pleasant Amtrak Station,https://www.amtrak.com/stations/mtp,America/Chicago,40.971179,-91.550772
MTR,Montreal Central Station,https://www.amtrak.com/stations/mtr,America/New_York,45.500169,-73.565767
MTZ,Martinez,https://www.amtrak.com/stations/mtz,America/Los_Angeles,38.018921,-122.138784
MVN,Malvern Amtrak,https://www.amtrak.com/stations/mvn,America/Chicago,34.365484,-92.814018
MVW,Mount Vernon Amtrak Station,https://www.amtrak.com/stations/mvw,America/Los_Angeles,48.41847,-122.334738
MWI,Marinette,https://www.amtrak.com/stations/mwi,America/Chicago,45.074637,-87.658441
MWK,Mohawk Amtrak Bus Stop,https://www.amtrak.com/stations/mwk,America/New_York,43.010908,-75.004734
MYA,Monterey Amtrak Bus Stop,https://www.amtrak.com/stations/mya,America/Los_Angeles,36.61768,-121.90164
MYH,Monterey Amtrak Bus Stop,https://www.amtrak.com/stations/myh,America/Los_Angeles,36.591861,-121.877311
MYM,Monterey Amtrak Bus Stop,https://www.amtrak.com/stations/mym,America/Los_Angeles,36.600593,-121.894921
MYS,Mystic Amtrak,https://www.amtrak.com/stations/mys,America/New_York,41.350934,-71.963093
MYT,Monterey Amtrak Bus Stop,https://www.amtrak.com/stations/myt,America/Los_Angeles,36.595379,-121.892522
NAP,Napa Amtrak Bus Stop,https://www.amtrak.com/stations/nap,America/Los_Angeles,38.297617,-122.280022
NBK,New Brunswick Amtrak Station,https://www.amtrak.com/stations/nbk,America/New_York,40.496522,-74.446265
NBN,Newbern-Dyersburg Amtrak Station,https://www.amtrak.com/stations/nbn,America/Chicago,36.112711,-89.262264
NBR,New Bern Amtrak Bus Stop,https://www.amtrak.com/stations/nbr,America/New_York,35.104416,-77.036948
NBU,New Buffalo Amtrak,https://www.amtrak.com/stations/nbu,America/New_York,41.796656,-86.745782
NCG,Nacogdoches Amtrak Bus Stop,https://www.amtrak.com/stations/ncg,America/Chicago,31.700274,-94.675886
NCR,New Carrollton Amtrak Station,https://www.amtrak.com/stations/ncr,America/New_York,38.948098,-76.871494
NDL,Needles Amtrak,https://www.amtrak.com/stations/ndl,America/Los_Angeles,34.840616,-114.606188
NEW,Newton,https://www.amtrak.com/stations/new,America/Chicago,38.046976,-97.344886
NFF,New Buffalo Amtrak Bus Stop,https://www.amtrak.com/stations/nff,America/New_York,40.447646,-76.98243
NFK,Norfolk,https://www.amtrak.com/stations/nfk,America/New_York,36.843509,-76.276195
NFL,Niagara Falls Amtrak Station,https://www.amtrak.com/stations/nfl,America/New_York,43.109908,-79.055276
NHL,Santa Clarita-Newhall Amtrak Station,https://www.amtrak.com/stations/nhl,America/Los_Angeles,34.379451,-118.527338
NHT,Northampton,https://www.amtrak.com/stations/nht,America/New_York,42.318858,-72.626379
NHV,New Haven,https://www.amtrak.com/stations/nhv,America/New_York,41.297714,-72.92667
NIB,New Iberia Amtrak,https://www.amtrak.com/stations/nib,America/Chicago,30.008415,-91.823809
NLC,New London,https://www.amtrak.com/stations/nlc,America/New_York,41.354267,-72.093225
NLS,Niles Amtrak Station,https://www.amtrak.com/stations/nls,America/New_York,41.837412,-86.252372
NOL,New Orleans Union Passenger Terminal,https://www.amtrak.com/stations/nol,America/Chicago,29.946085,-90.078291
NOR,Norman Amtrak Station,https://www.amtrak.com/stations/nor,America/Chicago,35.219963,-97.443013
NPN,Newport News,https://www.amtrak.com/stations/npn,America/New_York,37.022731,-76.45197
NPV,Naperville Amtrak Station,https://www.amtrak.com/stations/npv,America/Chicago,41.779514,-88.145497
NRK,Newark Amtrak,https://www.amtrak.com/stations/nrk,America/New_York,39.669686,-75.753513
NRO,New Rochelle Amtrak Station,https://www.amtrak.com/stations/nro,America/New_York,40.911451,-73.784329
NWK,Newark,https://www.amtrak.com/stations/nwk,America/New_York,40.734706,-74.16475
NYP,NY Moynihan Train Hall at Penn Station,https://www.amtrak.com/stations/nyp,America/New_York,40.750327,-73.994459
OAC,Oakland Coliseum/Airport Amtrak,https://www.amtrak.com/stations/oac,America/Los_Angeles,37.752499,-122.198147
OCA,Ocala Amtrak Bus Stop,https://www.amtrak.com/stations/oca,America/New_York,29.192235,-82.135282
OCO,Oconto Amtrak Bus Stop,https://www.amtrak.com/stations/oco,America/Chicago,44.879381,-87.887149
OKC,Oklahoma City,https://www.amtrak.com/stations/okc,America/Chicago,35.46549,-97.512749
OKE,Okeechobee Amtrak,https://www.amtrak.com/stations/oke,America/New_York,27.251867,-80.830812
OKJ,Oakland,https://www.amtrak.com/stations/okj,America/Los_Angeles,37.793866,-122.271667
OLT,San Diego Old Town Transportation Center,https://www.amtrak.com/stations/olt,America/Los_Angeles,32.755266,-117.200073
OLW,Olympia-Lacey Amtrak Station,https://www.amtrak.com/stations/olw,America/Los_Angeles,46.991273,-122.794059
OMA,Omaha Amtrak Station,https://www.amtrak.com/stations/oma,America/Chicago,41.249828,-95.92865
ONA,Ontario Amtrak,https://www.amtrak.com/stations/ona,America/Los_Angeles,34.061672,-117.649569
ONO,Oneonta Amtrak Station,https://www.amtrak.com/stations/ono,America/New_York,42.452912,-75.061385
ORB,Old Orchard Beach Amtrak,https://www.amtrak.com/stations/orb,America/New_York,43.514326,-70.376225
ORC,Oregon City Amtrak,https://www.amtrak.com/stations/orc,America/Los_Angeles,45.366146,-122.595925
ORL,Orlando,https://www.amtrak.com/stations/orl,America/New_York,28.525926,-81.381516
ORV,Oroville Amtrak Bus Stop,https://www.amtrak.com/stations/orv,America/Los_Angeles,39.520057,-121.572102
OSB,Old Saybrook Amtrak Station,https://www.amtrak.com/stations/osb,America/New_York,41.30039,-72.376818
OSC,Osceola Amtrak Station,https://www.amtrak.com/stations/osc,America/Chicago,41.037116,-93.764894
OSD,Oceanside,https://www.amtrak.com/stations/osd,America/Los_Angeles,33.192515,-117.37943
OSU,Oshkosh Amtrak Bus Stop,https://www.amtrak.com/stations/osu,America/Chicago,44.022747,-88.548899
OTM,Ottumwa Amtrak Station,https://www.amtrak.com/stations/otm,America/Chicago,41.018815,-92.414929
OXN,Oxnard,https://www.amtrak.com/stations/oxn,America/Los_Angeles,34.199241,-119.175978
PAK,Palatka Amtrak,https://www.amtrak.com/stations/pak,America/New_York,29.649734,-81.640471
PAO,Paoli Amtrak Station,https://www.amtrak.com/stations/pao,America/New_York,40.042754,-75.48376
PAR,Parkesburg Amtrak,https://www.amtrak.com/stations/par,America/New_York,39.95918,-75.922123
PAS,Pasadena Amtrak Bus Stop,https://www.amtrak.com/stations/pas,America/Los_Angeles,34.143079,-118.141295
PBF,Poplar Bluff Amtrak Station,https://www.amtrak.com/stations/pbf,America/Chicago,36.753995,-90.393341
PCH,Port Charlotte Amtrak Bus Stop,https://www.amtrak.com/stations/pch,America/New_York,27.016842,-82.050609
PCT,Princeton Amtrak Station,https://www.amtrak.com/stations/pct,America/Chicago,41.385191,-89.466815
PCV,Placerville Amtrak Bus Stop,https://www.amtrak.com/stations/pcv,America/Los_Angeles,38.73302,-120.789419
PDA,Portland Airport Amtrak Bus Stop,https://www.amtrak.com/stations/pda,America/Los_Angeles,45.588232,-122.592529
PDC,Palm Desert Amtrak Bus Stop,https://www.amtrak.com/stations/pdc,America/Los_Angeles,33.725715,-116.398519
PDX,Portland,https://www.amtrak.com/stations/pdx,America/Los_Angeles,45.528724,-122.676806
PGB,Pittsburgh,https://www.amtrak.com/stations/pgb,America/New_York,40.444378,-79.993414
PGH,Pittsburgh Amtrak Station,https://www.amtrak.com/stations/pgh,America/New_York,40.444738,-79.992307
PHA,Phoenix Sky Harbor Airport Amtrak Station,https://www.amtrak.com/stations/pha,America/Denver,33.43639,-112.013047
PHL,Philadelphia,https://www.amtrak.com/stations/phl,America/New_York,39.955615,-75.181041
PHN,North Philadelphia Amtrak Station,https://www.amtrak.com/stations/phn,America/New_York,39.99678,-75.155114
PIA,Peoria Amtrak Station,https://www.amtrak.com/stations/pia,America/Chicago,40.689364,-89.593643
PIC,Picayune Amtrak Station,https://www.amtrak.com/stations/pic,America/Chicago,30.524606,-89.68026
PIT,Pittsfield Amtrak Station,https://www.amtrak.com/stations/pit,America/New_York,42.451558,-73.2538
PIU,Peoria Bradley Univ Amtrak Bus Stop,https://www.amtrak.com/stations/piu,America/Chicago,40.699375,-89.61482
PJC,Princeton Junction Amtrak Station,https://www.amtrak.com/stations/pjc,America/New_York,40.31585,-74.623976
PJT,Pine Junction Amtrak Bus Stop,https://www.amtrak.com/stations/pjt,America/Denver,39.467469,-105.396485
PLB,Plattsburgh Amtrak Station,https://www.amtrak.com/stations/plb,America/New_York,44.696728,-73.446284
PLK,Pulaski Amtrak Bus Stop,https://www.amtrak.com/stations/plk,America/New_York,43.553987,-76.11276
PLO,Plano Amtrak Station,https://www.amtrak.com/stations/plo,America/Chicago,41.662384,-88.538272
PLP,Philipsburg Amtrak Bus Stop,https://www.amtrak.com/stations/plp,America/New_York,40.901,-78.223033
PLS,Pleasanton Amtrak Station,https://www.amtrak.com/stations/pls,America/Los_Angeles,37.658152,-121.882639
PNT,Pontiac Amtrak Station,https://www.amtrak.com/stations/pnt,America/New_York,42.632771,-83.292325
POG,Portage,https://www.amtrak.com/stations/pog,America/Chicago,43.547079,-89.467627
POH,Port Henry Amtrak Station,https://www.amtrak.com/stations/poh,America/New_York,44.042297,-73.458753
PON,Pontiac Amtrak Station,https://www.amtrak.com/stations/pon,America/Chicago,40.878687,-88.637198
POR,Portland,https://www.amtrak.com/stations/por,America/New_York,43.654097,-70.291258
POS,Pomona Amtrak,https://www.amtrak.com/stations/pos,America/Los_Angeles,34.059224,-117.750621
POU,Poughkeepsie Amtrak Station,https://www.amtrak.com/stations/pou,America/New_York,41.707056,-73.93749
PRB,Paso Robles Amtrak Station,https://www.amtrak.com/stations/prb,America/Los_Angeles,35.622683,-120.68786
PRC,Prince Amtrak Station,https://www.amtrak.com/stations/prc,America/New_York,37.856594,-81.060694
PRO,Provo Amtrak,https://www.amtrak.com/stations/pro,America/Denver,40.225957,-111.664001
PSC,Pasco Amtrak Station,https://www.amtrak.com/stations/psc,America/Los_Angeles,46.237012,-119.087729
PSN,Palm Springs Amtrak,https://www.amtrak.com/stations/psn,America/Los_Angeles,33.897491,-116.547913
PSP,Palm Springs Airport Amtrak Bus Stop,https://www.amtrak.com/stations/psp,America/Los_Angeles,33.824009,-116.508939
PSS,Palm Springs Amtrak Bus Stop,https://www.amtrak.com/stations/pss,America/Los_Angeles,33.824643,-116.54544
PTA,Port Angeles Amtrak Bus Stop,http://www.amtrak.com/station/pta,America/Los_Angeles,48.11978,-123.431523
PTB,Petersburg Amtrak Station,https://www.amtrak.com/stations/ptb,America/New_York,37.241627,-77.428794
PTC,Petaluma,https://www.amtrak.com/stations/ptc,America/Los_Angeles,38.2365,-122.635793
PTD,Potsdam Amtrak Bus Stop,https://www.amtrak.com/stations/ptd,America/New_York,44.670602,-74.989317
PTH,Port Huron Amtrak Station,https://www.amtrak.com/stations/pth,America/New_York,42.960419,-82.443805
PTO,Port Townsend Amtrak Bus Stop,http://www.amtrak.com/stations/pto,America/Los_Angeles,48.049493,-122.818437
PTS,Portsmouth Amtrak Station,https://www.amtrak.com/stations/pts,America/New_York,43.059678,-70.804088
PUL,Pullman Amtrak Station,https://www.amtrak.com/stations/pul,America/Los_Angeles,46.739378,-117.173801
PUN,Punxsutawney,https://www.amtrak.com/stations/pun,America/New_York,40.944654,-78.971581
PUR,Purcell Amtrak Station,https://www.amtrak.com/stations/pur,America/Chicago,35.012033,-97.357416
PVD,Providence,https://www.amtrak.com/stations/pvd,America/New_York,41.82949,-71.413478
PVL,Pauls Valley Amtrak Station,https://www.amtrak.com/stations/pvl,America/Chicago,34.741735,-97.21846
PXN,North Phoenix Metro Center Transit Station,https://www.amtrak.com/stations/pxn,America/Denver,33.639498,-112.119188
QAN,Quantico Amtrak,https://www.amtrak.com/stations/qan,America/New_York,38.521882,-77.293027
QCY,Quincy Amtrak Station,https://www.amtrak.com/stations/qcy,America/Chicago,39.957063,-91.368525
QKR,Quakertown Amtrak Bus Stop,https://www.amtrak.com/stations/qkr,America/New_York,40.434238,-75.419406
QUC,Quincy Amtrak Bus Stop,https://www.amtrak.com/stations/quc,America/Los_Angeles,47.233512,-119.855705
RAT,Raton,https://www.amtrak.com/stations/rat,America/Denver,36.901072,-104.437886
RBC,Richmond Amtrak Bus Stop,https://www.amtrak.com/stations/rbc,America/Los_Angeles,49.18723,-123.109885
RBF,Red Bluff Amtrak Bus Stop,https://www.amtrak.com/stations/rbf,America/Los_Angeles,40.178482,-122.234586
RDD,Redding Amtrak,https://www.amtrak.com/stations/rdd,America/Los_Angeles,40.583595,-122.39337
RDM,Redmond,https://www.amtrak.com/stations/rdm,America/Los_Angeles,44.253269,-121.160728
RDR,Redding Amtrak Bus Stop,https://www.amtrak.com/stations/rdr,America/Los_Angeles,40.583521,-122.392768
RDT,Redmond,https://www.amtrak.com/stations/rdt,America/Los_Angeles,44.266502,-121.176735
RDW,Red Wing Amtrak Station,https://www.amtrak.com/stations/rdw,America/Chicago,44.566214,-92.537066
REN,Rensselaer Amtrak,https://www.amtrak.com/stations/ren,America/Chicago,40.943281,-87.155121
RFS,Richfield Springs Amtrak Bus Stop,https://www.amtrak.com/stations/rfs,America/New_York,42.853611,-74.986864
RGH,Raleigh Union Station,https://www.amtrak.com/stations/rgh,America/New_York,35.777209,-78.647784
RHI,Rhinecliff Amtrak Station,https://www.amtrak.com/stations/rhi,America/New_York,41.921346,-73.951278
RIC,Richmond,https://www.amtrak.com/stations/ric,America/Los_Angeles,37.936752,-122.35413
RIV,Riverside,https://www.amtrak.com/stations/riv,America/Los_Angeles,33.97567,-117.369988
RKV,Rockville Amtrak,https://www.amtrak.com/stations/rkv,America/New_York,39.084547,-77.145995
RLN,Rocklin Amtrak Station,https://www.amtrak.com/stations/rln,America/Los_Angeles,38.791006,-121.237299
RMN,Rochester Amtrak Station,https://www.amtrak.com/stations/rmn,America/Chicago,44.028562,-92.474757
RMT,Rocky Mount,https://www.amtrak.com/stations/rmt,America/New_York,35.938001,-77.797855
RNK,Roanoke,https://www.amtrak.com/stations/rnk,America/New_York,37.273185,-79.941795
RNO,Reno,https://www.amtrak.com/stations/rno,America/Los_Angeles,39.528521,-119.812123
ROB,Rochester,https://www.amtrak.com/stations/rob,America/New_York,43.16269,-77.607884
ROC,Rochester,https://www.amtrak.com/stations/roc,America/New_York,43.163411,-77.608057
ROM,Rome Amtrak Station,https://www.amtrak.com/stations/rom,America/New_York,43.199425,-75.44996
ROY,Royal Oak Amtrak,https://www.amtrak.com/stations/roy,America/New_York,42.488439,-83.14701
RPC,Rohnert Park Amtrak Bus Stop,https://www.amtrak.com/stations/rpc,America/Los_Angeles,38.347328,-122.709749
RPH,Randolph Amtrak,https://www.amtrak.com/stations/rph,America/New_York,43.922398,-72.665459
RSP,Rouses Point Amtrak,https://www.amtrak.com/stations/rsp,America/New_York,44.99487,-73.371093
RSV,Roseville Amtrak,https://www.amtrak.com/stations/rsv,America/Los_Angeles,38.750016,-121.286286
RTC,Rutland MVRTD Transit Cntr,https://www.amtrak.com/stations/rtc,America/New_York,43.607876,-72.979324
RTE,Route 128 Amtrak Station,https://www.amtrak.com/stations/rte,America/New_York,42.210242,-71.147894
RTL,Rantoul Amtrak,https://www.amtrak.com/stations/rtl,America/Chicago,40.310905,-88.159126
RTZ,Ritzville Amtrak Bus Stop,https://www.amtrak.com/stations/rtz,America/Los_Angeles,47.119405,-118.36534
RUD,Rutland,https://www.amtrak.com/stations/rud,America/New_York,43.605756,-72.981538
RUG,Rugby Amtrak Station,https://www.amtrak.com/stations/rug,America/Chicago,48.369846,-99.997556
RVM,Richmond Main Street Amtrak Station,https://www.amtrak.com/stations/rvm,America/New_York,37.534209,-77.429512
RVR,Richmond Staples Mill Road Amtrak Station,https://www.amtrak.com/stations/rvr,America/New_York,37.617693,-77.496943
SAB,St. Albans Amtrak Station,https://www.amtrak.com/stations/sab,America/New_York,44.81236,-73.086191
SAC,Sacramento,https://www.amtrak.com/stations/sac,America/Los_Angeles,38.584004,-121.500704
SAE,Santa Fe Amtrak Bus Stop,https://www.amtrak.com/stations/sae,America/Denver,35.799738,-105.921959
SAF,Santa Fe Amtrak Station,https://www.amtrak.com/stations/saf,America/Denver,35.684265,-105.946599
SAL,Salisbury,https://www.amtrak.com/stations/sal,America/New_York,35.667496,-80.466323
SAN,San Diego,https://www.amtrak.com/stations/san,America/Los_Angeles,32.716169,-117.169576
SAO,Saco Amtrak Station,https://www.amtrak.com/stations/sao,America/New_York,43.496191,-70.449139
SAP,Santa Paula Amtrak Bus Stop,https://www.amtrak.com/stations/sap,America/Los_Angeles,34.346197,-119.06906
SAR,Saratoga Springs Amtrak Station,https://www.amtrak.com/stations/sar,America/New_York,43.08281,-73.810027
SAS,San Antonio Amtrak Station,https://www.amtrak.com/stations/sas,America/Chicago,29.41935,-98.478143
SAT,Santa Maria Amtrak Bus Stop,https://www.amtrak.com/stations/sat,America/Los_Angeles,34.951608,-120.416455
SAV,Savannah,https://www.amtrak.com/stations/sav,America/New_York,32.083412,-81.148264
SAY,Sandy,https://www.amtrak.com/stations/say,America/Los_Angeles,45.400668,-122.27625
SBA,Santa Barbara,https://www.amtrak.com/stations/sba,America/Los_Angeles,34.413718,-119.692785
SBG,Sebring Amtrak Station,https://www.amtrak.com/stations/sbg,America/New_York,27.496632,-81.434202
SBK,Seabrook,http://www.amtrak.com/stations/sbk,America/New_York,42.891524,-70.883909
SBU,UC Santa Barbara Amtrak Bus Stop,https://www.amtrak.com/stations/sbu,America/Los_Angeles,34.414945,-119.848296
SBY,Shelby Amtrak Station,https://www.amtrak.com/stations/sby,America/Denver,48.506748,-111.856649
SCC,Santa Clara Amtrak,https://www.amtrak.com/stations/scc,America/Los_Angeles,37.353219,-121.936576
SCD,St. Cloud Amtrak Station,https://www.amtrak.com/stations/scd,America/Chicago,45.567748,-94.149093
SCH,Schriever Amtrak,https://www.amtrak.com/stations/sch,America/Chicago,29.746678,-90.815246
SCS,Sacramento Amtrak Bus Stop,https://www.amtrak.com/stations/scs,America/Los_Angeles,38.576137,-121.495175
SDC,Sedona Amtrak Bus Stop,https://www.amtrak.com/stations/sdc,America/Denver,34.870511,-111.760303
SDL,Slidell Amtrak Station,https://www.amtrak.com/stations/sdl,America/Chicago,30.278372,-89.782565
SDY,Schenectady,https://www.amtrak.com/stations/sdy,America/New_York,42.814724,-73.942892
SEA,Seattle,https://www.amtrak.com/stations/sea,America/Los_Angeles,47.598445,-122.330161
SED,Sedalia Amtrak Station,https://www.amtrak.com/stations/sed,America/Chicago,38.711604,-93.228706
SFA,Sanford Amtrak Auto Train Station,https://www.amtrak.com/stations/sfa,America/New_York,28.808544,-81.291274
SFC,San Francisco,https://www.amtrak.com/stations/sfc,America/Los_Angeles,37.78865,-122.398867
SHB,Sheboygan Amtrak Bus Stop,https://www.amtrak.com/stations/shb,America/Chicago,43.74992,-87.714028
SHR,Shreveport SporTran Intermodal Terminal,https://www.amtrak.com/stations/shr,America/Chicago,32.499717,-93.756673
SIM,Simi Valley Amtrak,https://www.amtrak.com/stations/sim,America/Los_Angeles,34.270204,-118.695163
SJC,San Jose,https://www.amtrak.com/stations/sjc,America/Los_Angeles,37.329933,-121.902388
SJM,St. Joseph-Benton Harbor Amtrak Station,https://www.amtrak.com/stations/sjm,America/New_York,42.10908,-86.484484
SKD,Shamokin Dam Amtrak Bus Stop,https://www.amtrak.com/stations/skd,America/New_York,40.84826,-76.820489
SKE,Skykomish - Eastbound Amtrak Bus Stop,https://www.amtrak.com/stations/ske,America/Los_Angeles,47.711229,-121.361738
SKN,Stockton,https://www.amtrak.com/stations/skn,America/Los_Angeles,37.945468,-121.285632
SKT,Stockton,https://www.amtrak.com/stations/skt,America/Los_Angeles,37.957038,-121.279
SKW,Skykomish - Westbound Amtrak Bus Stop,https://www.amtrak.com/stations/skw,America/Los_Angeles,47.711903,-121.360091
SKY,Sandusky Amtrak Station,https://www.amtrak.com/stations/sky,America/New_York,41.440671,-82.717866
SLC,Salt Lake City,https://www.amtrak.com/stations/slc,America/Denver,40.761661,-111.908349
SLD,Salida Amtrak Bus Stop,https://www.amtrak.com/stations/sld,America/Denver,38.525047,-105.9945
SLH,South Lake Tahoe,https://www.amtrak.com/stations/slh,America/Los_Angeles,38.95779,-119.942288
SLM,Salem,https://www.amtrak.com/stations/slm,America/Los_Angeles,44.932331,-123.028331
SLO,San Luis Obispo,https://www.amtrak.com/stations/slo,America/Los_Angeles,35.276434,-120.654701
SLP,San Luis Obispo Amtrak Bus Stop,https://www.amtrak.com/stations/slp,America/Los_Angeles,35.298857,-120.655671
SLQ,St-Lambert Amtrak Station,https://www.amtrak.com/stations/slq,America/New_York,45.498896,-73.507287
SLT,South Lake Tahoe Amtrak Bus Stop,https://www.amtrak.com/stations/slt,America/Los_Angeles,38.913065,-120.004765
SLV,Solvang Amtrak Bus Stop,https://www.amtrak.com/stations/slv,America/Los_Angeles,34.595913,-120.14058
SMC,San Marcos Amtrak,https://www.amtrak.com/stations/smc,America/Chicago,29.876571,-97.941049
SMD,Madison Dutch Mill Park and Ride,https://www.amtrak.com/stations/smd,America/Chicago,43.047761,-89.306176
SMN,Santa Monica Pier,https://www.amtrak.com/stations/smn,America/Los_Angeles,34.012692,-118.494637
SMT,Summit Amtrak,https://www.amtrak.com/stations/smt,America/Chicago,41.794912,-87.809742
SNA,Santa Ana,https://www.amtrak.com/stations/sna,America/Los_Angeles,33.751629,-117.856607
SNB,San Bernardino,https://www.amtrak.com/stations/snb,America/Los_Angeles,34.104112,-117.310659
SNC,San Juan Capistrano Amtrak Station,https://www.amtrak.com/stations/snc,America/Los_Angeles,33.501318,-117.663813
SND,Sanderson Amtrak,https://www.amtrak.com/stations/snd,America/Chicago,30.139951,-102.398746
SNP,San Clemente Pier Amtrak,https://www.amtrak.com/stations/snp,America/Los_Angeles,33.419645,-117.619733
SNS,Salinas,https://www.amtrak.com/stations/sns,America/Los_Angeles,36.679145,-121.656745
SNY,Stanley Amtrak Bus Stop,https://www.amtrak.com/stations/sny,America/Chicago,44.949813,-90.938352
SOB,South Bend Amtrak Station,https://www.amtrak.com/stations/sob,America/New_York,41.67836,-86.287345
SOL,Solana Beach Amtrak Station,https://www.amtrak.com/stations/sol,America/Los_Angeles,32.992937,-117.271135
SOP,Southern Pines Amtrak Station,https://www.amtrak.com/stations/sop,America/New_York,35.175069,-79.390303
SPB,Spartanburg Amtrak Station,https://www.amtrak.com/stations/spb,America/New_York,34.953736,-81.936917
SPG,Springfield,https://www.amtrak.com/stations/spg,America/New_York,42.105987,-72.592905
SPI,Springfield,https://www.amtrak.com/stations/spi,America/Chicago,39.802323,-89.651384
SPK,Spokane,https://www.amtrak.com/stations/spk,America/Los_Angeles,47.65672,-117.415455
SPL,Staples Amtrak Station,https://www.amtrak.com/stations/spl,America/Chicago,46.354601,-94.795331
SPM,South Portsmouth Amtrak,https://www.amtrak.com/stations/spm,America/New_York,38.721281,-82.963751
SPT,Sandpoint Amtrak,https://www.amtrak.com/stations/spt,America/Los_Angeles,48.276234,-116.545583
SPX,Sparks Amtrak Bus Stop,https://www.amtrak.com/stations/spx,America/Los_Angeles,39.533532,-119.757111
SQM,Sequim Amtrak Bus Stop,http://www.amtrak.com/stations/sqm,America/Los_Angeles,48.079204,-123.116397
SRA,Sarasota Amtrak Bus Stop,https://www.amtrak.com/stations/sra,America/New_York,27.337166,-82.456626
SRC,Santa Rosa Amtrak Bus Stop,https://www.amtrak.com/stations/src,America/Los_Angeles,38.455605,-122.727626
SRN,Scranton Amtrak Station,https://www.amtrak.com/stations/srn,America/New_York,41.41019,-75.671028
SSG,Selinsgrove Amtrak Bus Stop,https://www.amtrak.com/stations/ssg,America/New_York,40.798142,-76.862247
SSM,Selma,https://www.amtrak.com/stations/ssm,America/New_York,35.532786,-78.280099
SSW,Stevens Pass Amtrak Bus Stop,https://www.amtrak.com/stations/ssw,America/Los_Angeles,47.746634,-121.088387
STA,Staunton Amtrak Station,https://www.amtrak.com/stations/sta,America/New_York,38.147639,-79.071776
STC,State College Amtrak Bus Stop,https://www.amtrak.com/stations/stc,America/New_York,40.792286,-77.867734
STL,St. Louis,https://www.amtrak.com/stations/stl,America/Chicago,38.624195,-90.203973
STM,Stamford Amtrak Station,https://www.amtrak.com/stations/stm,America/New_York,41.04713,-73.54216
STN,Stanley Amtrak Station,https://www.amtrak.com/stations/stn,America/Chicago,48.319813,-102.389379
STP,St. Petersburg,https://www.amtrak.com/stations/stp,America/New_York,27.843029,-82.644428
STS,New Haven,https://www.amtrak.com/stations/sts,America/New_York,41.305253,-72.922086
STW,Stanwood Amtrak,https://www.amtrak.com/stations/stw,America/Los_Angeles,48.242638,-122.349935
SUI,Suisun-Fairfield,https://www.amtrak.com/stations/sui,America/Los_Angeles,38.243401,-122.041099
SUN,Sunriver Amtrak Bus Stop,https://www.amtrak.com/stations/sun,America/Los_Angeles,43.873858,-121.446097
SUR,Sunbury Amtrak Bus Stop,https://www.amtrak.com/stations/sur,America/New_York,40.861741,-76.790229
SVP,Stevens Point Amtrak Bus Stop,https://www.amtrak.com/stations/svp,America/Chicago,44.533158,-89.575535
SVT,Sturtevant Amtrak Station,https://www.amtrak.com/stations/svt,America/Chicago,42.718292,-87.9063
SWB,Swansboro,https://www.amtrak.com/stations/swb,America/New_York,34.697075,-77.13963
SYA,Syracuse Amtrak Bus Stop,https://www.amtrak.com/stations/sya,America/New_York,43.113288,-76.112243
SYK,Sykesville Amtrak Bus Stop,https://www.amtrak.com/stations/syk,America/New_York,41.050236,-78.822691
SYR,Syracuse Regional Transportation Center,https://www.amtrak.com/stations/syr,America/New_York,43.076548,-76.169244
TAB,Tacoma Amtrak Station,https://www.amtrak.com/stations/tab,America/Los_Angeles,47.240719,-122.426917
TAC,Tacoma,https://www.amtrak.com/stations/tac,America/Los_Angeles,47.239803,-122.428099
TAY,Taylor Amtrak,https://www.amtrak.com/stations/tay,America/Chicago,30.567667,-97.407763
TCA,Toccoa Amtrak Station,https://www.amtrak.com/stations/tca,America/New_York,34.578456,-83.331542
TCL,Tuscaloosa Amtrak Station,https://www.amtrak.com/stations/tcl,America/Chicago,33.193165,-87.560228
TEH,Tehachapi Amtrak Bus Stop,https://www.amtrak.com/stations/teh,America/Los_Angeles,35.132772,-118.451143
TEM,Tempe Amtrak Bus Stop,https://www.amtrak.com/stations/tem,America/Denver,33.427551,-111.943154
THN,Thurmond Amtrak,https://www.amtrak.com/stations/thn,America/New_York,37.956986,-81.078754
TOH,Tomah Amtrak Station,https://www.amtrak.com/stations/toh,America/Chicago,43.986007,-90.505331
TOL,Toledo,https://www.amtrak.com/stations/tol,America/New_York,41.638345,-83.541721
TOP,Topeka Amtrak Station,https://www.amtrak.com/stations/top,America/Chicago,39.051415,-95.664916
TPA,Tampa,https://www.amtrak.com/stations/tpa,America/New_York,27.952492,-82.450777
TPL,Temple,https://www.amtrak.com/stations/tpl,America/Chicago,31.095883,-97.345792
TRA,Tracy Bus Stop Amtrak Bus Stop,https://www.amtrak.com/stations/tra,America/Los_Angeles,37.761409,-121.436094
TRC,Tracy ACE Station Amtrak Station,https://www.amtrak.com/stations/trc,America/Los_Angeles,37.696211,-121.43397
TRE,Trenton,https://www.amtrak.com/stations/tre,America/New_York,40.219011,-74.75444
TRF,Florence,http://www.amtrak.com/stations/trf,America/Los_Angeles,43.982227,-124.086997
TRI,Trinidad Amtrak,https://www.amtrak.com/stations/tri,America/Denver,37.172688,-104.507981
TRK,Turlock-Denair,https://www.amtrak.com/stations/trk,America/Los_Angeles,37.527229,-120.798009
TRM,Troy Amtrak Station,https://www.amtrak.com/stations/trm,America/New_York,42.542555,-83.191026
TRU,Truckee Amtrak Station,https://www.amtrak.com/stations/tru,America/Los_Angeles,39.327616,-120.185387
TSY,Tusayan Grand Canyon Village Amtrak Bus Stop,https://www.amtrak.com/stations/tsy,America/Denver,35.974367,-112.126413
TUK,Tukwila Amtrak,https://www.amtrak.com/stations/tuk,America/Los_Angeles,47.461081,-122.240254
TUS,Tucson Amtrak Station,https://www.amtrak.com/stations/tus,America/Denver,32.222977,-110.96677
TVF,The Villages-Lady Lake Amtrak Bus Stop,https://www.amtrak.com/stations/tvf,America/New_York,28.953067,-81.957989
TXA,Texarkana Amtrak Station,https://www.amtrak.com/stations/txa,America/Chicago,33.420067,-94.043082
TYR,Tyrone Amtrak,https://www.amtrak.com/stations/tyr,America/New_York,40.667705,-78.24047
UCA,Utica Amtrak Station,https://www.amtrak.com/stations/uca,America/New_York,43.103892,-75.223434
UKH,Ukiah Amtrak Bus Stop,https://www.amtrak.com/stations/ukh,America/Los_Angeles,39.15194,-123.198704
VAB,Virginia Beach Amtrak Bus Stop,https://www.amtrak.com/stations/vab,America/New_York,36.847096,-75.978111
VAC,Vancouver,https://www.amtrak.com/stations/vac,America/Los_Angeles,49.273757,-123.098336
VAL,Vallejo,https://www.amtrak.com/stations/val,America/Los_Angeles,38.100262,-122.25924
VAN,Vancouver,https://www.amtrak.com/stations/van,America/Los_Angeles,45.628901,-122.686544
VAS,Livermore Amtrak Station,https://www.amtrak.com/stations/vas,America/Los_Angeles,37.696986,-121.718346
VEC,Ventura Amtrak,https://www.amtrak.com/stations/vec,America/Los_Angeles,34.276929,-119.299918
VIS,Visalia,https://www.amtrak.com/stations/vis,America/Los_Angeles,36.331892,-119.288424
VMW,Vallejo,https://www.amtrak.com/stations/vmw,America/Los_Angeles,38.138008,-122.230557
VNC,Van Nuys,https://www.amtrak.com/stations/vnc,America/Los_Angeles,34.211294,-118.448206
VRV,Victorville Amtrak,https://www.amtrak.com/stations/vrv,America/Los_Angeles,34.5372,-117.292956
VTA,Veneta,http://www.amtrak.com/stations/vta,America/Los_Angeles,44.051247,-123.352301
WAB,Waterbury-Stowe Amtrak Station,https://www.amtrak.com/stations/wab,America/New_York,44.335011,-72.751806
WAC,Wasco,https://www.amtrak.com/stations/wac,America/Los_Angeles,35.594092,-119.332309
WAG,Wallingford,https://www.amtrak.com/stations/wag,America/New_York,43.476047,-72.976604
WAH,Washington Amtrak Station,https://www.amtrak.com/stations/wah,America/Chicago,38.561466,-91.012717
WAR,Warrensburg Amtrak Station,https://www.amtrak.com/stations/war,America/Chicago,38.76275,-93.7409
WAS,Washington Union Station,https://www.amtrak.com/stations/was,America/New_York,38.896993,-77.006422
WBG,Williamsburg Amtrak Station,https://www.amtrak.com/stations/wbg,America/New_York,37.276414,-76.708564
WDB,Woodbridge Amtrak,https://www.amtrak.com/stations/wdb,America/New_York,38.658915,-77.247852
WDL,Wisconsin Dells Amtrak Station,https://www.amtrak.com/stations/wdl,America/Chicago,43.626509,-89.777451
WDO,Waldo Amtrak Station,https://www.amtrak.com/stations/wdo,America/New_York,29.790507,-82.166727
WEC,Wenatchee,https://www.amtrak.com/stations/wec,America/Los_Angeles,47.421062,-120.307306
WEM,Wells,https://www.amtrak.com/stations/wem,America/New_York,43.320836,-70.612192
WEN,Wenatchee Amtrak,https://www.amtrak.com/stations/wen,America/Los_Angeles,47.421556,-120.306552
WES,Westwood UCLA Amtrak Bus Stop,https://www.amtrak.com/stations/wes,America/Los_Angeles,34.068772,-118.448979
WFD,Wallingford Amtrak,https://www.amtrak.com/stations/wfd,America/New_York,41.456969,-72.825221
WFH,Whitefish Amtrak Station,https://www.amtrak.com/stations/wfh,America/Denver,48.413474,-114.335575
WGL,West Glacier Amtrak,https://www.amtrak.com/stations/wgl,America/Denver,48.496218,-113.979164
WHL,Whitehall Amtrak,https://www.amtrak.com/stations/whl,America/New_York,43.554694,-73.403207
WHT,Wheatland Amtrak Bus Stop,https://www.amtrak.com/stations/wht,America/Denver,42.047963,-104.963919
WHV,White Haven Amtrak Bus Stop,https://www.amtrak.com/stations/whv,America/New_York,41.071379,-75.702013
WIC,Wichita Amtrak Station,https://www.amtrak.com/stations/wic,America/Chicago,37.684706,-97.334058
WIH,Wishram Amtrak,https://www.amtrak.com/stations/wih,America/Los_Angeles,45.657669,-120.966142
WIL,Wilmington,https://www.amtrak.com/stations/wil,America/New_York,39.737263,-75.551095
WIN,Winona,https://www.amtrak.com/stations/win,America/Chicago,44.044404,-91.640073
WIP,Winter Park/fraser,https://www.amtrak.com/stations/wip,America/Denver,39.947566,-105.817388
WIT,Wittenberg Amtrak Bus Stop,https://www.amtrak.com/stations/wit,America/Chicago,44.826834,-89.164447
WKB,Wilkes-Barre Amtrak Bus Stop,https://www.amtrak.com/stations/wkb,America/New_York,41.245024,-75.883196
WLC,Welches,https://www.amtrak.com/stations/wlc,America/Los_Angeles,45.347546,-121.9629
WLM,Williamsport Amtrak Station,https://www.amtrak.com/stations/wlm,America/New_York,41.240347,-77.000806
WLN,Wilson,https://www.amtrak.com/stations/wln,America/New_York,35.723135,-77.908029
WLO,Winslow Amtrak,https://www.amtrak.com/stations/wlo,America/Denver,35.021666,-110.694981
WLY,Westerly Amtrak Station,https://www.amtrak.com/stations/wly,America/New_York,41.381081,-71.82978
WMA,Williams,https://www.amtrak.com/stations/wma,America/Denver,35.25195,-112.190106
WMH,Williams,https://www.amtrak.com/stations/wmh,America/Denver,35.25114,-112.198135
WMN,Wilmington Amtrak Station,https://www.amtrak.com/stations/wmn,America/New_York,34.251192,-77.874895
WMS,Warm Springs,https://www.amtrak.com/stations/wms,America/Los_Angeles,44.763884,-121.263777
WND,Windsor,https://www.amtrak.com/stations/wnd,America/New_York,41.852013,-72.642253
WNL,Windsor Locks,https://www.amtrak.com/stations/wnl,America/New_York,41.913956,-72.626101
WNM,Windsor-Mt. Ascutney Amtrak,https://www.amtrak.com/stations/wnm,America/New_York,43.479908,-72.384985
WNN,Winnemucca Amtrak,https://www.amtrak.com/stations/wnn,America/Los_Angeles,40.969044,-117.73221
WNR,Walnut Ridge Amtrak Station,https://www.amtrak.com/stations/wnr,America/Chicago,36.06766,-90.956766
WOB,Woburn Amtrak Station,https://www.amtrak.com/stations/wob,America/New_York,42.517358,-71.143823
WOR,Worcester Union Station,https://www.amtrak.com/stations/wor,America/New_York,42.261478,-71.794812
WPB,West Palm Beach Amtrak Station,https://www.amtrak.com/stations/wpb,America/New_York,26.712554,-80.062184
WPK,Winter Park Amtrak Station,https://www.amtrak.com/stations/wpk,America/New_York,28.597099,-81.351993
WPN,Waupun,https://www.amtrak.com/stations/wpn,America/Chicago,43.633568,-88.724237
WPS,Winter Park,https://www.amtrak.com/stations/wps,America/Denver,39.88369,-105.761836
WPT,Wolf Point Amtrak Station,https://www.amtrak.com/stations/wpt,America/Denver,48.091672,-105.642736
WRJ,White River Junction Amtrak Station,https://www.amtrak.com/stations/wrj,America/New_York,43.647785,-72.317272
WRT,Watertown Amtrak Station,https://www.amtrak.com/stations/wrt,America/New_York,43.994583,-75.900163
WSF,Westfield Amtrak Bus Stop,https://www.amtrak.com/stations/wsf,America/Chicago,43.887791,-89.484089
WSJ,Wausau Amtrak Bus Stop,https://www.amtrak.com/stations/wsj,America/Chicago,44.959456,-89.624628
WSP,Westport,https://www.amtrak.com/stations/wsp,America/New_York,44.187288,-73.451773
WSS,White Sulphur Springs Amtrak,https://www.amtrak.com/stations/wss,America/New_York,37.786443,-80.304004
WTH,Winter Haven,https://www.amtrak.com/stations/wth,America/New_York,28.002146,-81.734878
WTI,Waterloo Amtrak Station,https://www.amtrak.com/stations/wti,America/New_York,41.431816,-85.024298
WTN,Williston Amtrak Station,https://www.amtrak.com/stations/wtn,America/Chicago,48.143,-103.620926
WTS,Willits Calif Western Railroad Depot Amtrak,https://www.amtrak.com/stations/wts,America/Los_Angeles,39.412597,-123.351003
WWA,Walla Walla Amtrak Bus Stop,https://www.amtrak.com/stations/wwa,America/Los_Angeles,46.065989,-118.341502
WWD,Wildwood Amtrak Station,https://www.amtrak.com/stations/wwd,America/New_York,28.866164,-82.039518
YAZ,Yazoo City Amtrak,https://www.amtrak.com/stations/yaz,America/Chicago,32.848477,-90.41523
YEM,Yemassee Amtrak,https://www.amtrak.com/stations/yem,America/New_York,32.688286,-80.846901
YNY,Yonkers Amtrak Station,https://www.amtrak.com/stations/yny,America/New_York,40.935586,-73.902263
YUM,Yuma Amtrak,http://www.amtrak.com,America/Denver,32.723139,-114.615571
FRR,FRR,http://www.amtrak.com/stations/frr,America/New_York,39.416261,-77.382299
FRC,FRC,http://www.amtrak.com/stations/frc,America/New_York,39.411855,-77.40558
NRG,NRG,http://www.amtrak.com/stations/nrg,America/Los_Angeles,34.230659,-118.545417
GUI,GUI,http://www.amtrak.com/stations/gui,America/New_York,41.275603,-72.673513
CLN,CLN,http://www.amtrak.com/stations/cln,America/New_York,41.279458,-72.528314
WSB,WSB,http://www.amtrak.com/stations/wsb,America/New_York,41.288787,-72.448
BNF,BNF,http://www.amtrak.com/stations/bnf,America/New_York,41.274549,-72.817225
MDS,MDS,http://www.amtrak.com/stations/mds,America/New_York,41.283577,-72.599444
BBK,BBK,http://www.amtrak.com/stations/bbk,America/Los_Angeles,34.178925,-118.311829
BTN,BTN,http://www.amtrak.com/stations/btn,America/New_York,44.4757,-73.21927
VRN,VRN,http://www.amtrak.com/stations/vrn,America/New_York,44.180921,-73.248824
MBY,MBY,http://www.amtrak.com/stations/mby,America/New_York,44.017425,-73.169775
MYU,MYU,http://www.amtrak.com/stations/myu,America/Los_Angeles,36.653516,-121.801379
BLT,BLT,http://www.amtrak.com/stations/blt,America/New_York,44.480327,-73.214168
PWN,PWN,http://www.amtrak.com/stations/pwn,America/New_York,40.244388,-75.650845
RDI,RDI,http://www.amtrak.com/stations/rdi,America/New_York,40.333791,-75.923048
CBN,CBN,http://www.amtrak.com/stations/cbn,America/New_York,43.109235,-79.058357
NFS,NFS,http://www.amtrak.com/stations/nfs,America/New_York,43.108736,-79.063291
TWO,TWO,http://www.amtrak.com/stations/two,America/New_York,43.645427,-79.380762
HSU,HSU,http://www.amtrak.com/stations/hsu,America/Los_Angeles,40.873347,-124.081496
CNL,CNL,http://www.amtrak.com/stations/cnl,America/Los_Angeles,35.864338,-119.385865
HAG,HAG,http://www.amtrak.com/stations/hag,America/New_York,39.64466,-77.722497
HNK,HNK,http://www.amtrak.com/stations/hnk,America/New_York,39.695275,-78.154315
CUA,CUA,http://www.amtrak.com/stations/cua,America/New_York,39.650452,-78.730438
FSB,FSB,http://www.amtrak.com/stations/fsb,America/New_York,39.6489,-78.933168
GTV,GTV,http://www.amtrak.com/stations/gtv,America/New_York,39.692354,-79.100326
SLS,SLS,http://www.amtrak.com/stations/sls,America/New_York,38.361983,-75.605898
CDE,CDE,http://www.amtrak.com/stations/cde,America/New_York,38.561752,-76.048392
ESN,ESN,http://www.amtrak.com/stations/esn,America/New_York,38.811393,-76.064904
KNT,KNT,http://www.amtrak.com/stations/knt,America/New_York,38.966498,-76.240827
OCP,OCP,http://www.amtrak.com/stations/ocp,America/New_York,38.37621,-75.164144
OCM,OCM,http://www.amtrak.com/stations/ocm,America/New_York,38.334867,-75.102911
PHB,PHB,http://www.amtrak.com/stations/phb,America/New_York,39.952712,-75.156973
CTS,CTS,http://www.amtrak.com/stations/cts,America/New_York,44.603306,-75.184956
PTU,PTU,http://www.amtrak.com/stations/ptu,America/New_York,54.77395978,-101.84806319
PTY,PTY,http://www.amtrak.com/stations/pty,America/New_York,54.77395978,-101.84806319
STO,STO,http://www.amtrak.com/stations/sto,America/Los_Angeles,44.297476,-121.562472
RKF,RKF,http://www.amtrak.com/stations/rkf,America/New_York,43.116549,-85.601879
CDS,CDS,http://www.amtrak.com/stations/cds,America/New_York,43.219603,-85.570486
HWC,HWC,http://www.amtrak.com/stations/hwc,America/New_York,43.398305,-85.469631
MOR,MOR,http://www.amtrak.com/stations/mor,America/New_York,43.539299,-85.443821
SWD,SWD,http://www.amtrak.com/stations/swd,America/New_York,43.578627,-85.451237
BGP,BGP,http://www.amtrak.com/stations/bgp,America/New_York,43.673347,-85.483612
REE,REE,http://www.amtrak.com/stations/ree,America/New_York,43.88684,-85.521804
CLC,CLC,http://www.amtrak.com/stations/clc,America/New_York,44.270402,-85.389748
MTO,MTO,http://www.amtrak.com/stations/mto,America/New_York,44.410563,-85.398401
KGS,KGS,http://www.amtrak.com/stations/kgs,America/New_York,44.584797,-85.535201
TRV,TRV,http://www.amtrak.com/stations/trv,America/New_York,44.765169,-85.627845
CHL,CHL,http://www.amtrak.com/stations/chl,America/New_York,45.318448,-85.257941
PSK,PSK,http://www.amtrak.com/stations/psk,America/New_York,45.350252,-84.97136
ALA,ALA,http://www.amtrak.com/stations/ala,America/New_York,45.440201,-84.790596
PST,PST,http://www.amtrak.com/stations/pst,America/New_York,45.550636,-84.783762
MAK,MAK,http://www.amtrak.com/stations/mak,America/New_York,45.781335,-84.72577
STI,STI,http://www.amtrak.com/stations/sti,America/New_York,45.858556,-84.721153
KNS,KNS,http://www.amtrak.com/stations/kns,America/New_York,46.273752,-84.506535
SMI,SMI,http://www.amtrak.com/stations/smi,America/New_York,46.463461,-84.371705
JOC,JOC,http://www.amtrak.com/stations/joc,America/Chicago,43.089988,-88.763099
BRB,BRB,http://www.amtrak.com/stations/brb,America/Chicago,43.459349,-89.773676
SPA,SPA,http://www.amtrak.com/stations/spa,America/Chicago,43.923258,-90.818639
LSW,LSW,http://www.amtrak.com/stations/lsw,America/Chicago,43.817112,-91.229332
BDU,BDU,http://www.amtrak.com/stations/bdu,America/Chicago,44.729865,-88.446964
ANT,ANT,http://www.amtrak.com/stations/ant,America/Denver,38.665671,-106.845967
CBC,CBC,http://www.amtrak.com/stations/cbc,America/Denver,38.870357,-106.980905
AAM,AAM,http://www.amtrak.com/stations/aam,America/New_York,43.39172,-84.644832
MPT,MPT,http://www.amtrak.com/stations/mpt,America/New_York,43.58182,-84.772629
CLR,CLR,http://www.amtrak.com/stations/clr,America/New_York,43.840968,-84.767465
HGL,HGL,http://www.amtrak.com/stations/hgl,America/New_York,44.335421,-84.80111
GYG,GYG,http://www.amtrak.com/stations/gyg,America/New_York,44.64765,-84.708063
GYL,GYL,http://www.amtrak.com/stations/gyl,America/New_York,45.027057,-84.691914
WEL,WEL,http://www.amtrak.com/stations/wel,America/Chicago,37.274929,-97.381842
LLR,LLR,http://www.amtrak.com/stations/llr,America/New_York,54.77395978,-101.84806319
BKV,BKV,http://www.amtrak.com/stations/bkv,America/New_York,54.77395978,-101.84806319
CCV,CCV,http://www.amtrak.com/stations/ccv,America/New_York,54.77395978,-101.84806319
LEF,LEF,http://www.amtrak.com/stations/lef,America/New_York,54.77395978,-101.84806319
FRS,FRS,http://www.amtrak.com/stations/frs,America/New_York,54.77395978,-101.84806319
LRV,LRV,http://www.amtrak.com/stations/lrv,America/New_York,54.77395978,-101.84806319
RIP,RIP,http://www.amtrak.com/stations/rip,America/New_York,54.77395978,-101.84806319
BRU,BRU,http://www.amtrak.com/stations/bru,America/New_York,54.77395978,-101.84806319
MPV,MPV,http://www.amtrak.com/stations/mpv,America/New_York,54.77395978,-101.84806319
RRV,RRV,http://www.amtrak.com/stations/rrv,America/New_York,54.77395978,-101.84806319
BLR,BLR,http://www.amtrak.com/stations/blr,America/New_York,54.77395978,-101.84806319
SEB,SEB,http://www.amtrak.com/stations/seb,America/New_York,54.77395978,-101.84806319
BWE,BWE,http://www.amtrak.com/stations/bwe,America/New_York,54.77395978,-101.84806319
OTN,OTN,http://www.amtrak.com/stations/otn,America/New_York,54.77395978,-101.84806319
WBL,WBL,http://www.amtrak.com/stations/wbl,America/New_York,54.77395978,-101.84806319
HAE,HAE,http://www.amtrak.com/stations/hae,America/New_York,54.77395978,-101.84806319
MSA,MSA,http://www.amtrak.com/stations/msa,America/New_York,54.77395978,-101.84806319
EDG,EDG,http://www.amtrak.com/stations/edg,America/New_York,54.77395978,-101.84806319
PRV,PRV,http://www.amtrak.com/stations/prv,America/New_York,54.77395978,-101.84806319
NWF,NWF,http://www.amtrak.com/stations/nwf,America/New_York,54.77395978,-101.84806319
FAV,FAV,http://www.amtrak.com/stations/fav,America/New_York,54.77395978,-101.84806319
NSF,NSF,http://www.amtrak.com/stations/nsf,America/New_York,35.794203,-78.706292
LEX,LEX,http://www.amtrak.com/stations/lex,America/New_York,35.820856,-80.251565
NWB,NWB,http://www.amtrak.com/stations/nwb,America/New_York,41.636026,-70.927564
